{
   "type": "FeatureCollection",
   "features": [
  {
    "type": "Feature",
    "geometry": {
       "type": "Point",
       "coordinates":  [ -134.1369,56.0014 ]
    },
    "properties": {
    "Name":"Cape Decision Lighthouse",
    "Location":" Kuiu Island",
    "State":" AK"
    }
  },
  {
    "type": "Feature",
    "geometry": {
       "type": "Point",
       "coordinates":  [ -146.6466,60.2383 ]
    },
    "properties": {
    "Name":"Cape Hinchinbrook Lighthouse",
    "Location":" Hinchinbrook Island",
    "State":" AK"
    }
  },
  {
    "type": "Feature",
    "geometry": {
       "type": "Point",
       "coordinates":  [ -136.64,58.1984 ]
    },
    "properties": {
    "Name":"Cape Spencer Lighthouse",
    "Location":" Cape Spencer",
    "State":" AK"
    }
  },
  {
    "type": "Feature",
    "geometry": {
       "type": "Point",
       "coordinates":  [ -144.5983,59.7983 ]
    },
    "properties": {
    "Name":"Cape St. Elias Lighthouse",
    "Location":" Kayak Island",
    "State":" AK"
    }
  },
  {
    "type": "Feature",
    "geometry": {
       "type": "Point",
       "coordinates":  [ -135.22,58.9717 ]
    },
    "properties": {
    "Name":"Eldred Rock Lighthouse",
    "Location":" Eldred Rock",
    "State":" AK"
    }
  },
  {
    "type": "Feature",
    "geometry": {
       "type": "Point",
       "coordinates":  [ -133.6322,57.2698 ]
    },
    "properties": {
    "Name":"Five Finger Lighthouse",
    "Location":" Five Finger Islands",
    "State":" AK"
    }
  },
  {
    "type": "Feature",
    "geometry": {
       "type": "Point",
       "coordinates":  [ -131.8817,55.4466 ]
    },
    "properties": {
    "Name":"Guard Island Lighthouse",
    "Location":" Guard Island",
    "State":" AK"
    }
  },
  {
    "type": "Feature",
    "geometry": {
       "type": "Point",
       "coordinates":  [ -131.6594,55.3325 ]
    },
    "properties": {
    "Name":"Lightship Umatilla",
    "Location":" Ketchikan",
    "State":" AK"
    }
  },
  {
    "type": "Feature",
    "geometry": {
       "type": "Point",
       "coordinates":  [ -131.1836,55.0985 ]
    },
    "properties": {
    "Name":"Mary Island Lighthouse",
    "Location":" Mary Island",
    "State":" AK"
    }
  },
  {
    "type": "Feature",
    "geometry": {
       "type": "Point",
       "coordinates":  [ -145.76288,60.53714 ]
    },
    "properties": {
    "Name":"Minor Light of Alaska-Odiak Pharos",
    "Location":"",
    "State":""
    }
  },
  {
    "type": "Feature",
    "geometry": {
       "type": "Point",
       "coordinates":  [ -134.9559,58.4087 ]
    },
    "properties": {
    "Name":"Point Retreat Lighthouse",
    "Location":" Admiralty Island",
    "State":" AK"
    }
  },
  {
    "type": "Feature",
    "geometry": {
       "type": "Point",
       "coordinates":  [ -135.1517,58.855 ]
    },
    "properties": {
    "Name":"Point Sherman Light",
    "Location":" Point Sherman",
    "State":" AK"
    }
  },
  {
    "type": "Feature",
    "geometry": {
       "type": "Point",
       "coordinates":  [ -134.922605,58.546152 ]
    },
    "properties": {
    "Name":"Sentinel Island Lighthouse",
    "Location":" Sentinel Island",
    "State":" AK"
    }
  },
  {
    "type": "Feature",
    "geometry": {
       "type": "Point",
       "coordinates":  [ -130.933,54.8032 ]
    },
    "properties": {
    "Name":"Tree Point Lighthouse",
    "Location":" Misty Fjords National Monument",
    "State":" AK"
    }
  },
  {
    "type": "Feature",
    "geometry": {
       "type": "Point",
       "coordinates":  [ -88.01165,30.43745 ]
    },
    "properties": {
    "Name":"Mobile Bay Lighthouse",
    "Location":" Mobile Bay",
    "State":" AL"
    }
  },
  {
    "type": "Feature",
    "geometry": {
       "type": "Point",
       "coordinates":  [ -88.0239,30.2278 ]
    },
    "properties": {
    "Name":"Mobile Point Light",
    "Location":" Fort Morgan",
    "State":" AL"
    }
  },
  {
    "type": "Feature",
    "geometry": {
       "type": "Point",
       "coordinates":  [ -88.0534,30.1966 ]
    },
    "properties": {
    "Name":"Sand Island Lighthouse",
    "Location":" Sand Island",
    "State":" AL"
    }
  },
  {
    "type": "Feature",
    "geometry": {
       "type": "Point",
       "coordinates":  [ -72.067,41.3196 ]
    },
    "properties": {
    "Name":"Avery Point Lighthouse",
    "Location":" Groton",
    "State":" CT"
    }
  },
  {
    "type": "Feature",
    "geometry": {
       "type": "Point",
       "coordinates":  [ -72.6533,41.2117 ]
    },
    "properties": {
    "Name":"Faulkner's Island Lighthouse",
    "Location":" Faulkner's Island",
    "State":" CT"
    }
  },
  {
    "type": "Feature",
    "geometry": {
       "type": "Point",
       "coordinates":  [ -73.2167,41.1424 ]
    },
    "properties": {
    "Name":"Fayerweather Island Lighthouse",
    "Location":" Fayerweather Island",
    "State":" CT"
    }
  },
  {
    "type": "Feature",
    "geometry": {
       "type": "Point",
       "coordinates":  [ -72.9039,41.2483 ]
    },
    "properties": {
    "Name":"Five Mile Point Lighthouse",
    "Location":" New Haven",
    "State":" CT"
    }
  },
  {
    "type": "Feature",
    "geometry": {
       "type": "Point",
       "coordinates":  [ -73.6235,40.9825 ]
    },
    "properties": {
    "Name":"Great Captain Island Lighthouse",
    "Location":" Great Captain Island",
    "State":" CT"
    }
  },
  {
    "type": "Feature",
    "geometry": {
       "type": "Point",
       "coordinates":  [ -73.4434,41.0417 ]
    },
    "properties": {
    "Name":"Greens Ledge Lighthouse",
    "Location":" Greens Ledge",
    "State":" CT"
    }
  },
  {
    "type": "Feature",
    "geometry": {
       "type": "Point",
       "coordinates":  [ -72.343254,41.271373 ]
    },
    "properties": {
    "Name":"Lynde Point lighthouse",
    "Location":" Saybrook",
    "State":" CT"
    }
  },
  {
    "type": "Feature",
    "geometry": {
       "type": "Point",
       "coordinates":  [ -71.9894,41.3167 ]
    },
    "properties": {
    "Name":"Morgan Point Lighthouse",
    "Location":" Mystic Harbor",
    "State":" CT"
    }
  },
  {
    "type": "Feature",
    "geometry": {
       "type": "Point",
       "coordinates":  [ -71.9664,41.3614 ]
    },
    "properties": {
    "Name":"Mystic Seaport Lighthouse",
    "Location":" Mystic",
    "State":" CT"
    }
  },
  {
    "type": "Feature",
    "geometry": {
       "type": "Point",
       "coordinates":  [ -72.08997,41.31666 ]
    },
    "properties": {
    "Name":"New London Harbor Lighthouse",
    "Location":" New London",
    "State":" CT"
    }
  },
  {
    "type": "Feature",
    "geometry": {
       "type": "Point",
       "coordinates":  [ -72.077286,41.306121000000005 ]
    },
    "properties": {
    "Name":"New London Ledge Lighthouse",
    "Location":" New London",
    "State":" CT"
    }
  },
  {
    "type": "Feature",
    "geometry": {
       "type": "Point",
       "coordinates":  [ -73.3683,41.0783 ]
    },
    "properties": {
    "Name":"Peck Ledge Lighthouse",
    "Location":" Norwalk Harbor",
    "State":" CT"
    }
  },
  {
    "type": "Feature",
    "geometry": {
       "type": "Point",
       "coordinates":  [ -73.2218,41.1163 ]
    },
    "properties": {
    "Name":"Penfield Reef Lighthouse",
    "Location":" Fairfield",
    "State":" CT"
    }
  },
  {
    "type": "Feature",
    "geometry": {
       "type": "Point",
       "coordinates":  [ -72.34276,41.2632 ]
    },
    "properties": {
    "Name":"Saybrook Breakwater Lighthouse",
    "Location":" Old Saybrook",
    "State":" CT"
    }
  },
  {
    "type": "Feature",
    "geometry": {
       "type": "Point",
       "coordinates":  [ -73.4144,41.0526 ]
    },
    "properties": {
    "Name":"Sheffield Island Lighthouse",
    "Location":" Sheffield Island",
    "State":" CT"
    }
  },
  {
    "type": "Feature",
    "geometry": {
       "type": "Point",
       "coordinates":  [ -72.9116,41.235 ]
    },
    "properties": {
    "Name":"Southwest Ledge Lighthouse",
    "Location":" New Haven",
    "State":" CT"
    }
  },
  {
    "type": "Feature",
    "geometry": {
       "type": "Point",
       "coordinates":  [ -73.5433,41.0133 ]
    },
    "properties": {
    "Name":"Stamford Harbor Ledge Lighthouse",
    "Location":" Stamford",
    "State":" CT"
    }
  },
  {
    "type": "Feature",
    "geometry": {
       "type": "Point",
       "coordinates":  [ -71.9056,41.3276 ]
    },
    "properties": {
    "Name":"Stonington Harbor Lighthouse",
    "Location":" Stonington",
    "State":" CT"
    }
  },
  {
    "type": "Feature",
    "geometry": {
       "type": "Point",
       "coordinates":  [ -73.1033,41.1517 ]
    },
    "properties": {
    "Name":"Stratford Point Lighthouse",
    "Location":" Stratford Point",
    "State":" CT"
    }
  },
  {
    "type": "Feature",
    "geometry": {
       "type": "Point",
       "coordinates":  [ -73.1016,41.06 ]
    },
    "properties": {
    "Name":"Stratford Shoal Lighthouse",
    "Location":" Stratford Shoal",
    "State":" CT"
    }
  },
  {
    "type": "Feature",
    "geometry": {
       "type": "Point",
       "coordinates":  [ -73.1803,41.1687 ]
    },
    "properties": {
    "Name":"Tongue Point Lighthouse",
    "Location":" Bridgeport",
    "State":" CT"
    }
  },
  {
    "type": "Feature",
    "geometry": {
       "type": "Point",
       "coordinates":  [ -75.5701,39.5416 ]
    },
    "properties": {
    "Name":"Baker Rear Range Light",
    "Location":" Port Penn",
    "State":" DE"
    }
  },
  {
    "type": "Feature",
    "geometry": {
       "type": "Point",
       "coordinates":  [ -75.5181,39.7201 ]
    },
    "properties": {
    "Name":"Bellevue Rear Range Light",
    "Location":" Wilmington",
    "State":" DE"
    }
  },
  {
    "type": "Feature",
    "geometry": {
       "type": "Point",
       "coordinates":  [ -75.48973000000001,39.76207 ]
    },
    "properties": {
    "Name":"Cherry Island Range Light",
    "Location":" Cherry Island",
    "State":" DE"
    }
  },
  {
    "type": "Feature",
    "geometry": {
       "type": "Point",
       "coordinates":  [ -75.1003,38.7972 ]
    },
    "properties": {
    "Name":"Delaware Breakwater Lighthouse",
    "Location":" Cape Henlopen State Park",
    "State":" DE"
    }
  },
  {
    "type": "Feature",
    "geometry": {
       "type": "Point",
       "coordinates":  [ -75.169,38.7896 ]
    },
    "properties": {
    "Name":"Delaware Breakwater Rear Range(Green Hill)Light",
    "Location":" Lewes",
    "State":" DE"
    }
  },
  {
    "type": "Feature",
    "geometry": {
       "type": "Point",
       "coordinates":  [ -75.0548,38.4514 ]
    },
    "properties": {
    "Name":"Fenwick Island Lighthouse",
    "Location":" Fenwick Island",
    "State":" DE"
    }
  },
  {
    "type": "Feature",
    "geometry": {
       "type": "Point",
       "coordinates":  [ -75.18356,39.048159999999996 ]
    },
    "properties": {
    "Name":"Fourteen Foot Bank Lighthouse",
    "Location":" Delaware Bay",
    "State":" DE"
    }
  },
  {
    "type": "Feature",
    "geometry": {
       "type": "Point",
       "coordinates":  [ -75.09361,38.8147 ]
    },
    "properties": {
    "Name":"Harbor of Refuge Lighthouse",
    "Location":" Lewes",
    "State":" DE"
    }
  },
  {
    "type": "Feature",
    "geometry": {
       "type": "Point",
       "coordinates":  [ -75.14699999999999,38.779 ]
    },
    "properties": {
    "Name":"Lightship Overfalls",
    "Location":" Lewes",
    "State":" DE"
    }
  },
  {
    "type": "Feature",
    "geometry": {
       "type": "Point",
       "coordinates":  [ -75.592,39.4829 ]
    },
    "properties": {
    "Name":"Liston Front Range Lighthouse",
    "Location":" Fort Penn",
    "State":" DE"
    }
  },
  {
    "type": "Feature",
    "geometry": {
       "type": "Point",
       "coordinates":  [ -75.639,39.5239 ]
    },
    "properties": {
    "Name":"Liston Rear Range Light",
    "Location":" Biddle's Corner",
    "State":" DE"
    }
  },
  {
    "type": "Feature",
    "geometry": {
       "type": "Point",
       "coordinates":  [ -75.5031,39.76212 ]
    },
    "properties": {
    "Name":"Marcus Hook Rear Range Lighthouse",
    "Location":" Gordon Heights",
    "State":" DE"
    }
  },
  {
    "type": "Feature",
    "geometry": {
       "type": "Point",
       "coordinates":  [ -75.3149,38.9472 ]
    },
    "properties": {
    "Name":"Mispillion Lighthouse",
    "Location":" Slaughter Beach",
    "State":" DE"
    }
  },
  {
    "type": "Feature",
    "geometry": {
       "type": "Point",
       "coordinates":  [ -75.5954,39.6423 ]
    },
    "properties": {
    "Name":"New Castle Range Light",
    "Location":" New Castle",
    "State":" DE"
    }
  },
  {
    "type": "Feature",
    "geometry": {
       "type": "Point",
       "coordinates":  [ -75.5898,39.4064 ]
    },
    "properties": {
    "Name":"Reedy Island Rear Range Light",
    "Location":" Taylor's Bridge",
    "State":" DE"
    }
  },
  {
    "type": "Feature",
    "geometry": {
       "type": "Point",
       "coordinates":  [ -80.6183,24.851670000000002 ]
    },
    "properties": {
    "Name":"Alligator Reef Lighthouse",
    "Location":" Alligator Reef",
    "State":"  FL"
    }
  },
  {
    "type": "Feature",
    "geometry": {
       "type": "Point",
       "coordinates":  [ -81.442,30.673000000000002 ]
    },
    "properties": {
    "Name":"Amelia Island Lighthouse",
    "Location":" Fernandina Beach",
    "State":" FL"
    }
  },
  {
    "type": "Feature",
    "geometry": {
       "type": "Point",
       "coordinates":  [ -81.52,24.525 ]
    },
    "properties": {
    "Name":"American Shoal Lighthouse",
    "Location":" American Shoals",
    "State":" FL"
    }
  },
  {
    "type": "Feature",
    "geometry": {
       "type": "Point",
       "coordinates":  [ -82.8458,28.168000000000003 ]
    },
    "properties": {
    "Name":"Anclote Key Lighthouse",
    "Location":" Anclote Key",
    "State":" FL"
    }
  },
  {
    "type": "Feature",
    "geometry": {
       "type": "Point",
       "coordinates":  [ -82.2635,26.7419 ]
    },
    "properties": {
    "Name":"Boca Grande Entrance Rear Range Light",
    "Location":" Gasparilla Island",
    "State":" FL"
    }
  },
  {
    "type": "Feature",
    "geometry": {
       "type": "Point",
       "coordinates":  [ -80.156,25.6666 ]
    },
    "properties": {
    "Name":"Cape Florida Lighthouse",
    "Location":" Key Biscayne",
    "State":" FL"
    }
  },
  {
    "type": "Feature",
    "geometry": {
       "type": "Point",
       "coordinates":  [ -80.5435,28.4602 ]
    },
    "properties": {
    "Name":"Cape Canaveral Lighthouse",
    "Location":" Cape Canaveral",
    "State":" FL"
    }
  },
  {
    "type": "Feature",
    "geometry": {
       "type": "Point",
       "coordinates":  [ -85.3564,29.671 ]
    },
    "properties": {
    "Name":"Cape San Blas Lighthouse",
    "Location":" Cape San Blas",
    "State":" FL"
    }
  },
  {
    "type": "Feature",
    "geometry": {
       "type": "Point",
       "coordinates":  [ -85.04685,29.5878 ]
    },
    "properties": {
    "Name":"Cape St. George Lighthouse",
    "Location":" Little St.George Island",
    "State":" FL"
    }
  },
  {
    "type": "Feature",
    "geometry": {
       "type": "Point",
       "coordinates":  [ -84.86284,29.663159999999998 ]
    },
    "properties": {
    "Name":"Cape St. George Lighthouse",
    "Location":"  St.George Island",
    "State":" FL"
    }
  },
  {
    "type": "Feature",
    "geometry": {
       "type": "Point",
       "coordinates":  [ -80.21167,25.22167 ]
    },
    "properties": {
    "Name":"Carysfort Reef Lighthouse",
    "Location":" Carysfort Reef",
    "State":" FL"
    }
  },
  {
    "type": "Feature",
    "geometry": {
       "type": "Point",
       "coordinates":  [ -83.06533,29.09648 ]
    },
    "properties": {
    "Name":"Cedar Keys(Seahorse Key) Lighthouse",
    "Location":" Seahorse Key",
    "State":" FL"
    }
  },
  {
    "type": "Feature",
    "geometry": {
       "type": "Point",
       "coordinates":  [ -84.7013,29.8272 ]
    },
    "properties": {
    "Name":"Crooked River Light",
    "Location":" Carabelle Beach",
    "State":" FL"
    }
  },
  {
    "type": "Feature",
    "geometry": {
       "type": "Point",
       "coordinates":  [ -82.9209,24.6305 ]
    },
    "properties": {
    "Name":"Dry Tortugas(Loggerhead Key) Lighthouse",
    "Location":" Loggerhead Key",
    "State":" FL"
    }
  },
  {
    "type": "Feature",
    "geometry": {
       "type": "Point",
       "coordinates":  [ -82.7607,27.6003 ]
    },
    "properties": {
    "Name":"Egmont Key Lighthouse",
    "Location":" Egmont Key",
    "State":" FL"
    }
  },
  {
    "type": "Feature",
    "geometry": {
       "type": "Point",
       "coordinates":  [ -80.0965,25.5899 ]
    },
    "properties": {
    "Name":"Fowery Rocks Lighthouse",
    "Location":" Fowery Rocks",
    "State":" FL"
    }
  },
  {
    "type": "Feature",
    "geometry": {
       "type": "Point",
       "coordinates":  [ -82.8729,24.6279 ]
    },
    "properties": {
    "Name":"Garden Key (Ft. Jefferson) Lighthouse",
    "Location":" Fort Jefferson",
    "State":" FL"
    }
  },
  {
    "type": "Feature",
    "geometry": {
       "type": "Point",
       "coordinates":  [ -80.0808,26.2591 ]
    },
    "properties": {
    "Name":"Hillsboro Inlet Lighthouse",
    "Location":" Pompano Beach",
    "State":" FL"
    }
  },
  {
    "type": "Feature",
    "geometry": {
       "type": "Point",
       "coordinates":  [ -80.0817,26.9484 ]
    },
    "properties": {
    "Name":"Jupiter Inlet Lighthouse",
    "Location":" Jupiter",
    "State":" FL"
    }
  },
  {
    "type": "Feature",
    "geometry": {
       "type": "Point",
       "coordinates":  [ -80.4349,25.0872 ]
    },
    "properties": {
    "Name":"Key Largo Lighthouse",
    "Location":" Key Largo",
    "State":" FL"
    }
  },
  {
    "type": "Feature",
    "geometry": {
       "type": "Point",
       "coordinates":  [ -81.8007,24.5506 ]
    },
    "properties": {
    "Name":"Key West Lighthouse",
    "Location":" Key West",
    "State":" FL"
    }
  },
  {
    "type": "Feature",
    "geometry": {
       "type": "Point",
       "coordinates":  [ -87.3084,30.3458 ]
    },
    "properties": {
    "Name":"Pensacola Lighthouse",
    "Location":" Pensacola",
    "State":" FL"
    }
  },
  {
    "type": "Feature",
    "geometry": {
       "type": "Point",
       "coordinates":  [ -80.9281,29.0803 ]
    },
    "properties": {
    "Name":"Ponce de Leon Inlet Lighthouse",
    "Location":"Ponce Inlet",
    "State":" FL"
    }
  },
  {
    "type": "Feature",
    "geometry": {
       "type": "Point",
       "coordinates":  [ -82.2608,26.7173 ]
    },
    "properties": {
    "Name":"Port Boca Grande(Gasparilla Island) Lighthouse",
    "Location":" Port Boca Grande",
    "State":"  FL"
    }
  },
  {
    "type": "Feature",
    "geometry": {
       "type": "Point",
       "coordinates":  [ -81.8755,24.4534 ]
    },
    "properties": {
    "Name":"Sand Key Lighthouse",
    "Location":" Sand Key",
    "State":" FL"
    }
  },
  {
    "type": "Feature",
    "geometry": {
       "type": "Point",
       "coordinates":  [ -82.0141,26.452709999999996 ]
    },
    "properties": {
    "Name":"Sanibel Island Lighthouse",
    "Location":" Sanibel Island",
    "State":" FL"
    }
  },
  {
    "type": "Feature",
    "geometry": {
       "type": "Point",
       "coordinates":  [ -81.111,24.6278 ]
    },
    "properties": {
    "Name":"Sombrero Key Lighthouse",
    "Location":" Sombrero Key",
    "State":" FL"
    }
  },
  {
    "type": "Feature",
    "geometry": {
       "type": "Point",
       "coordinates":  [ -81.28877,29.885479999999998 ]
    },
    "properties": {
    "Name":"St. Augustine Lighthouse",
    "Location":" St. Augustine Beach",
    "State":" FL"
    }
  },
  {
    "type": "Feature",
    "geometry": {
       "type": "Point",
       "coordinates":  [ -81.3981,30.3861 ]
    },
    "properties": {
    "Name":"St. Johns Lighthouse",
    "Location":" Mayport",
    "State":" FL"
    }
  },
  {
    "type": "Feature",
    "geometry": {
       "type": "Point",
       "coordinates":  [ -81.4259,30.3935 ]
    },
    "properties": {
    "Name":"St. Johns River Lighthouse",
    "Location":" Mayport",
    "State":" FL"
    }
  },
  {
    "type": "Feature",
    "geometry": {
       "type": "Point",
       "coordinates":  [ -85.303,29.7603 ]
    },
    "properties": {
    "Name":"St. Joseph Point Lighthouse",
    "Location":" Port St. Joe",
    "State":" FL"
    }
  },
  {
    "type": "Feature",
    "geometry": {
       "type": "Point",
       "coordinates":  [ -84.179,30.0739 ]
    },
    "properties": {
    "Name":"St. Marks Lighthouse",
    "Location":" St Marks",
    "State":" FL"
    }
  },
  {
    "type": "Feature",
    "geometry": {
       "type": "Point",
       "coordinates":  [ -80.880052,32.022681 ]
    },
    "properties": {
    "Name":"Cockspur Island Lighthouse",
    "Location":" Cockspur Island",
    "State":" GA"
    }
  },
  {
    "type": "Feature",
    "geometry": {
       "type": "Point",
       "coordinates":  [ -81.4168,30.974 ]
    },
    "properties": {
    "Name":"Little Cumberland Island Lighthouse",
    "Location":" Little Cumberland Island",
    "State":" GA"
    }
  },
  {
    "type": "Feature",
    "geometry": {
       "type": "Point",
       "coordinates":  [ -81.3933,31.1334 ]
    },
    "properties": {
    "Name":"Saint Simons Lighthouse",
    "Location":" Saint Simons Island",
    "State":" GA"
    }
  },
  {
    "type": "Feature",
    "geometry": {
       "type": "Point",
       "coordinates":  [ -81.2773,31.3895 ]
    },
    "properties": {
    "Name":"Sapelo Island Front Range Light",
    "Location":" Sapelo Island",
    "State":" GA"
    }
  },
  {
    "type": "Feature",
    "geometry": {
       "type": "Point",
       "coordinates":  [ -81.2852,31.392 ]
    },
    "properties": {
    "Name":"Sapelo Island Lighthouse",
    "Location":" Sapelo Island",
    "State":" GA"
    }
  },
  {
    "type": "Feature",
    "geometry": {
       "type": "Point",
       "coordinates":  [ -81.0845,32.0794 ]
    },
    "properties": {
    "Name":"Savannah Harbor Light Savannah",
    "Location":" GA",
    "State":""
    }
  },
  {
    "type": "Feature",
    "geometry": {
       "type": "Point",
       "coordinates":  [ -80.8509,32.0273 ]
    },
    "properties": {
    "Name":"Tybee Island Lighthouse",
    "Location":" Tybee Island",
    "State":" GA"
    }
  },
  {
    "type": "Feature",
    "geometry": {
       "type": "Point",
       "coordinates":  [ -158.1082,21.2995 ]
    },
    "properties": {
    "Name":"Barbers Point Lighthouse",
    "Location":" Barbers Point",
    "State":" HI"
    }
  },
  {
    "type": "Feature",
    "geometry": {
       "type": "Point",
       "coordinates":  [ -154.8135,19.5195 ]
    },
    "properties": {
    "Name":"Cape Kumukahi Light",
    "Location":" Cape Kumukahi",
    "State":" HI"
    }
  },
  {
    "type": "Feature",
    "geometry": {
       "type": "Point",
       "coordinates":  [ -157.8107,21.2585 ]
    },
    "properties": {
    "Name":"Diamond Head Lighthouse",
    "Location":" Diamond Head",
    "State":" HI"
    }
  },
  {
    "type": "Feature",
    "geometry": {
       "type": "Point",
       "coordinates":  [ -155.7734,20.249000000000002 ]
    },
    "properties": {
    "Name":"Kauhola Point Lighthouse",
    "Location":" Kauhola Point",
    "State":" HI"
    }
  },
  {
    "type": "Feature",
    "geometry": {
       "type": "Point",
       "coordinates":  [ -159.4049,22.2355 ]
    },
    "properties": {
    "Name":"Kilauea Lighthouse",
    "Location":" Kilauea Point",
    "State":" HI"
    }
  },
  {
    "type": "Feature",
    "geometry": {
       "type": "Point",
       "coordinates":  [ -156.6813,20.875 ]
    },
    "properties": {
    "Name":"Lahaina Lighthouse",
    "Location":" Lahaina Harbor",
    "State":" HI"
    }
  },
  {
    "type": "Feature",
    "geometry": {
       "type": "Point",
       "coordinates":  [ -157.6522,21.3125 ]
    },
    "properties": {
    "Name":"Makapu'u Lighthouse",
    "Location":" Makapu'u Head",
    "State":" HI"
    }
  },
  {
    "type": "Feature",
    "geometry": {
       "type": "Point",
       "coordinates":  [ -156.9699,21.2091 ]
    },
    "properties": {
    "Name":"Moloka'I Lighthouse",
    "Location":" Kalaupapa Peninsula",
    "State":" HI"
    }
  },
  {
    "type": "Feature",
    "geometry": {
       "type": "Point",
       "coordinates":  [ -159.3361,21.9558 ]
    },
    "properties": {
    "Name":"Nawiliwili Lighthouse",
    "Location":" Lihue",
    "State":" HI"
    }
  },
  {
    "type": "Feature",
    "geometry": {
       "type": "Point",
       "coordinates":  [ -156.00107,19.63784 ]
    },
    "properties": {
    "Name":"Minor light of Hawai'i - Kailua Lighthouse",
    "Location":"",
    "State":""
    }
  },
  {
    "type": "Feature",
    "geometry": {
       "type": "Point",
       "coordinates":  [ -155.83286999999999,20.04145 ]
    },
    "properties": {
    "Name":"Minor light of Hawai'i - Kawaihae Lighthouse",
    "Location":"",
    "State":""
    }
  },
  {
    "type": "Feature",
    "geometry": {
       "type": "Point",
       "coordinates":  [ -156.06125,19.72794 ]
    },
    "properties": {
    "Name":"Minor light of Hawai'i - Keahole Point Lighthouse",
    "Location":"",
    "State":""
    }
  },
  {
    "type": "Feature",
    "geometry": {
       "type": "Point",
       "coordinates":  [ -155.556,20.12793 ]
    },
    "properties": {
    "Name":"Minor light of Hawai'i - Kukuihaele Lighthouse",
    "Location":"",
    "State":""
    }
  },
  {
    "type": "Feature",
    "geometry": {
       "type": "Point",
       "coordinates":  [ -155.24051,19.99379 ]
    },
    "properties": {
    "Name":"Minor light of Hawai'i - Laupahoehoe Point Lighthouse",
    "Location":"",
    "State":""
    }
  },
  {
    "type": "Feature",
    "geometry": {
       "type": "Point",
       "coordinates":  [ -155.90151,20.18034 ]
    },
    "properties": {
    "Name":"Minor light of Hawai'i - Mahukona Lighthouse",
    "Location":"",
    "State":""
    }
  },
  {
    "type": "Feature",
    "geometry": {
       "type": "Point",
       "coordinates":  [ -155.0899,19.76224 ]
    },
    "properties": {
    "Name":"Minor light of Hawai'i - Pauka'a Point Lighthouse",
    "Location":"",
    "State":""
    }
  },
  {
    "type": "Feature",
    "geometry": {
       "type": "Point",
       "coordinates":  [ -155.0828,19.84729 ]
    },
    "properties": {
    "Name":"Minor light of Hawai'i - Pepe'ekeo Point Lighthouse",
    "Location":"",
    "State":""
    }
  },
  {
    "type": "Feature",
    "geometry": {
       "type": "Point",
       "coordinates":  [ -155.08621000000002,19.72689 ]
    },
    "properties": {
    "Name":"Minor light of Hawai'i - Coconut Point Lighthouse",
    "Location":"",
    "State":""
    }
  },
  {
    "type": "Feature",
    "geometry": {
       "type": "Point",
       "coordinates":  [ -155.68191000000002,18.91224 ]
    },
    "properties": {
    "Name":"Minor light of Hawai'i - Ka Lae Lighthouse",
    "Location":"",
    "State":""
    }
  },
  {
    "type": "Feature",
    "geometry": {
       "type": "Point",
       "coordinates":  [ -155.93601,19.47917 ]
    },
    "properties": {
    "Name":"Minor Light of Hawai'i - Napo'opo'o Lighthouse",
    "Location":"",
    "State":""
    }
  },
  {
    "type": "Feature",
    "geometry": {
       "type": "Point",
       "coordinates":  [ -156.6664,20.5019 ]
    },
    "properties": {
    "Name":"Minor light of Kaho'olawe - Kaho'olawe Southwest Point Lighthouse ",
    "Location":"",
    "State":""
    }
  },
  {
    "type": "Feature",
    "geometry": {
       "type": "Point",
       "coordinates":  [ -159.60432,21.89293 ]
    },
    "properties": {
    "Name":"Minor light of Kaua'i - Hanapepe Lighthouse",
    "Location":"",
    "State":""
    }
  },
  {
    "type": "Feature",
    "geometry": {
       "type": "Point",
       "coordinates":  [ -159.29556000000002,22.14684 ]
    },
    "properties": {
    "Name":"Minor light of Kaua'i - Kahala Point Lighthouse",
    "Location":"",
    "State":""
    }
  },
  {
    "type": "Feature",
    "geometry": {
       "type": "Point",
       "coordinates":  [ -159.34791,21.95658 ]
    },
    "properties": {
    "Name":"Minor light of Kaua'i - Kuki'i Point Lighthouse",
    "Location":"",
    "State":""
    }
  },
  {
    "type": "Feature",
    "geometry": {
       "type": "Point",
       "coordinates":  [ -159.44421,21.86891 ]
    },
    "properties": {
    "Name":"Minor light of Kaua'i - Makahu'ena Point Lighthouse",
    "Location":"",
    "State":""
    }
  },
  {
    "type": "Feature",
    "geometry": {
       "type": "Point",
       "coordinates":  [ -156.99161999999998,20.7833 ]
    },
    "properties": {
    "Name":"Minor light of Lana'i - Kaumalapau Lighthouse",
    "Location":"",
    "State":""
    }
  },
  {
    "type": "Feature",
    "geometry": {
       "type": "Point",
       "coordinates":  [ -156.8866,20.7417 ]
    },
    "properties": {
    "Name":"Minor light of Lana'i - Manele Bay Lighthouse",
    "Location":"",
    "State":""
    }
  },
  {
    "type": "Feature",
    "geometry": {
       "type": "Point",
       "coordinates":  [ -156.96496000000002,20.73239 ]
    },
    "properties": {
    "Name":"Minor light of Lana'i - Palaoa Point Lighthouse",
    "Location":"",
    "State":""
    }
  },
  {
    "type": "Feature",
    "geometry": {
       "type": "Point",
       "coordinates":  [ -156.98768,20.92907 ]
    },
    "properties": {
    "Name":"Minor light of Lana'i - Pohakuloa Point Lighthouse ",
    "Location":"",
    "State":""
    }
  },
  {
    "type": "Feature",
    "geometry": {
       "type": "Point",
       "coordinates":  [ -156.4117,20.5836 ]
    },
    "properties": {
    "Name":"Minor light of Maui - Hanamanioa Lighthouse ",
    "Location":"",
    "State":""
    }
  },
  {
    "type": "Feature",
    "geometry": {
       "type": "Point",
       "coordinates":  [ -156.66621999999998,21.004 ]
    },
    "properties": {
    "Name":"Minor light of Maui - Hawea Point Lighthouse ",
    "Location":"",
    "State":""
    }
  },
  {
    "type": "Feature",
    "geometry": {
       "type": "Point",
       "coordinates":  [ -156.4717,20.89 ]
    },
    "properties": {
    "Name":"Minor light of Maui - Kahului Harbor Range Lighthouse ",
    "Location":"",
    "State":""
    }
  },
  {
    "type": "Feature",
    "geometry": {
       "type": "Point",
       "coordinates":  [ -155.97901000000002,20.757260000000002 ]
    },
    "properties": {
    "Name":"Minor light of Maui - Ka'uiki Head Lighthouse ",
    "Location":"",
    "State":""
    }
  },
  {
    "type": "Feature",
    "geometry": {
       "type": "Point",
       "coordinates":  [ -156.5233,20.7767 ]
    },
    "properties": {
    "Name":"Minor light of Maui - McGregor Point Lighthouse ",
    "Location":"",
    "State":""
    }
  },
  {
    "type": "Feature",
    "geometry": {
       "type": "Point",
       "coordinates":  [ -156.49732,20.630770000000002 ]
    },
    "properties": {
    "Name":"Minor light of Maui - Molokini Lighthouse ",
    "Location":"",
    "State":""
    }
  },
  {
    "type": "Feature",
    "geometry": {
       "type": "Point",
       "coordinates":  [ -156.5899,21.0284 ]
    },
    "properties": {
    "Name":"Minor light of Maui - Nakalele Lighthouse ",
    "Location":"",
    "State":""
    }
  },
  {
    "type": "Feature",
    "geometry": {
       "type": "Point",
       "coordinates":  [ -156.32143,20.94599 ]
    },
    "properties": {
    "Name":"Minor light of Maui - Pa'uwela Point Lighthouse ",
    "Location":"",
    "State":""
    }
  },
  {
    "type": "Feature",
    "geometry": {
       "type": "Point",
       "coordinates":  [ -157.866,21.30708 ]
    },
    "properties": {
    "Name":"Minor light of Oahu - Aloha Tower Lighthouse ",
    "Location":"",
    "State":""
    }
  },
  {
    "type": "Feature",
    "geometry": {
       "type": "Point",
       "coordinates":  [ -158.2794,21.574289999999998 ]
    },
    "properties": {
    "Name":"Minor light of Oahu - Ka'ena Point Lighthouse ",
    "Location":"",
    "State":""
    }
  },
  {
    "type": "Feature",
    "geometry": {
       "type": "Point",
       "coordinates":  [ -157.76353999999998,21.46226 ]
    },
    "properties": {
    "Name":"Minor light of Oahu - Pyramid Rock Lighthouse ",
    "Location":"",
    "State":""
    }
  },
  {
    "type": "Feature",
    "geometry": {
       "type": "Point",
       "coordinates":  [ -87.531,41.786 ]
    },
    "properties": {
    "Name":"68th Street Crib(Dunne Crib) Light",
    "Location":" Chicago",
    "State":" IL"
    }
  },
  {
    "type": "Feature",
    "geometry": {
       "type": "Point",
       "coordinates":  [ -87.5878,41.8906 ]
    },
    "properties": {
    "Name":"Chicago Harbor Lighthouse",
    "Location":" Chicago",
    "State":"  IL"
    }
  },
  {
    "type": "Feature",
    "geometry": {
       "type": "Point",
       "coordinates":  [ -87.6017,41.8882 ]
    },
    "properties": {
    "Name":"Chicago Harbor Southeast Guidewall Light",
    "Location":" Chicago",
    "State":"  IL"
    }
  },
  {
    "type": "Feature",
    "geometry": {
       "type": "Point",
       "coordinates":  [ -87.545,41.8734 ]
    },
    "properties": {
    "Name":"Four Mile Crib Lighthouse",
    "Location":" Chicago",
    "State":" IL"
    }
  },
  {
    "type": "Feature",
    "geometry": {
       "type": "Point",
       "coordinates":  [ -87.6758,42.0639 ]
    },
    "properties": {
    "Name":"Grosse Point Lighthouse",
    "Location":" Evanston",
    "State":"  IL"
    }
  },
  {
    "type": "Feature",
    "geometry": {
       "type": "Point",
       "coordinates":  [ -87.8133,42.36 ]
    },
    "properties": {
    "Name":"Northern Waukegan Harbor Light",
    "Location":" Waukegan",
    "State":"  IL"
    }
  },
  {
    "type": "Feature",
    "geometry": {
       "type": "Point",
       "coordinates":  [ -87.5717,41.9167 ]
    },
    "properties": {
    "Name":"William E. Denver Crib Light",
    "Location":" Chicago",
    "State":" IL"
    }
  },
  {
    "type": "Feature",
    "geometry": {
       "type": "Point",
       "coordinates":  [ -87.5917,41.9667 ]
    },
    "properties": {
    "Name":"Wilson Avenue Crib Light",
    "Location":" Montrose Harbor",
    "State":" IL"
    }
  },
  {
    "type": "Feature",
    "geometry": {
       "type": "Point",
       "coordinates":  [ -87.40942,41.64624 ]
    },
    "properties": {
    "Name":"Buffington Harbor Breakwater Light",
    "Location":" Buffington Harbor",
    "State":"IN"
    }
  },
  {
    "type": "Feature",
    "geometry": {
       "type": "Point",
       "coordinates":  [ -87.4933,41.7267 ]
    },
    "properties": {
    "Name":"Calumet Harbor Light",
    "Location":" Calumet Harbor",
    "State":"IN"
    }
  },
  {
    "type": "Feature",
    "geometry": {
       "type": "Point",
       "coordinates":  [ -87.32018000000001,41.63136 ]
    },
    "properties": {
    "Name":"Gary Harbor Breakwater Light",
    "Location":" Gary",
    "State":"IN"
    }
  },
  {
    "type": "Feature",
    "geometry": {
       "type": "Point",
       "coordinates":  [ -87.4414,41.6814 ]
    },
    "properties": {
    "Name":"Indiana Harbor East Breakwater Light",
    "Location":" Indiana Harbor",
    "State":"IN"
    }
  },
  {
    "type": "Feature",
    "geometry": {
       "type": "Point",
       "coordinates":  [ -86.91169000000001,41.728978999999995 ]
    },
    "properties": {
    "Name":"Michigan City East Pierhead Light",
    "Location":" Michigan City",
    "State":"IN"
    }
  },
  {
    "type": "Feature",
    "geometry": {
       "type": "Point",
       "coordinates":  [ -86.905997,41.722801000000004 ]
    },
    "properties": {
    "Name":"Old Michigan City Lighthouse",
    "Location":" Michigan City",
    "State":"IN"
    }
  },
  {
    "type": "Feature",
    "geometry": {
       "type": "Point",
       "coordinates":  [ -86.91397099999999,41.72987 ]
    },
    "properties": {
    "Name":"Breakwater Light West Pierhead",
    "Location":"Michigan City",
    "State":""
    }
  },
  {
    "type": "Feature",
    "geometry": {
       "type": "Point",
       "coordinates":  [ -88.8718,30.0483 ]
    },
    "properties": {
    "Name":"Chandeleur Island Light",
    "Location":" Chandeleur Islands",
    "State":"  LA"
    }
  },
  {
    "type": "Feature",
    "geometry": {
       "type": "Point",
       "coordinates":  [ -90.1133,30.0268 ]
    },
    "properties": {
    "Name":"New Canal Lighthouse",
    "Location":" Lake Pontchartrain",
    "State":"  LA"
    }
  },
  {
    "type": "Feature",
    "geometry": {
       "type": "Point",
       "coordinates":  [ -89.03706,29.190140000000003 ]
    },
    "properties": {
    "Name":"Pass A L'Outre Light",
    "Location":" Mississippi River Delta",
    "State":"  LA"
    }
  },
  {
    "type": "Feature",
    "geometry": {
       "type": "Point",
       "coordinates":  [ -90.2982,30.2967 ]
    },
    "properties": {
    "Name":"Pass Manchac Light",
    "Location":" Lake Pontchartrain",
    "State":"  LA"
    }
  },
  {
    "type": "Feature",
    "geometry": {
       "type": "Point",
       "coordinates":  [ -90.0624,30.0318 ]
    },
    "properties": {
    "Name":"Port Pontchartrain Lighthouse",
    "Location":" New Orleans",
    "State":"  LA"
    }
  },
  {
    "type": "Feature",
    "geometry": {
       "type": "Point",
       "coordinates":  [ -93.8502,29.7166 ]
    },
    "properties": {
    "Name":"Sabine Pass Light",
    "Location":" Sabine Pass",
    "State":"  LA"
    }
  },
  {
    "type": "Feature",
    "geometry": {
       "type": "Point",
       "coordinates":  [ -91.0667,28.9167 ]
    },
    "properties": {
    "Name":"Ship Shoal Lighthouse",
    "Location":" Gulf of Mexico",
    "State":"  LA"
    }
  },
  {
    "type": "Feature",
    "geometry": {
       "type": "Point",
       "coordinates":  [ -89.167,29.0152 ]
    },
    "properties": {
    "Name":"South Pass Lighthouse",
    "Location":" South Pass",
    "State":"  LA"
    }
  },
  {
    "type": "Feature",
    "geometry": {
       "type": "Point",
       "coordinates":  [ -89.391,28.985 ]
    },
    "properties": {
    "Name":"Southwest Pass (1839) Light",
    "Location":" Mississippi River Delta",
    "State":"  LA"
    }
  },
  {
    "type": "Feature",
    "geometry": {
       "type": "Point",
       "coordinates":  [ -89.389,28.971 ]
    },
    "properties": {
    "Name":"Southwest Pass (1871) Light",
    "Location":" Mississippi River Delta",
    "State":"  LA"
    }
  },
  {
    "type": "Feature",
    "geometry": {
       "type": "Point",
       "coordinates":  [ -89.435,28.906999999999996 ]
    },
    "properties": {
    "Name":"Southwest Pass Entrance Lighthouse",
    "Location":" Mississippi River Delta",
    "State":"  LA"
    }
  },
  {
    "type": "Feature",
    "geometry": {
       "type": "Point",
       "coordinates":  [ -91.21619,29.69412 ]
    },
    "properties": {
    "Name":"Southwest Reef Lighthouse",
    "Location":" Berwick",
    "State":"  LA"
    }
  },
  {
    "type": "Feature",
    "geometry": {
       "type": "Point",
       "coordinates":  [ -90.1692,30.3799 ]
    },
    "properties": {
    "Name":"Tchefunte River Light",
    "Location":" Madisonville",
    "State":"  LA"
    }
  },
  {
    "type": "Feature",
    "geometry": {
       "type": "Point",
       "coordinates":  [ -89.7432,30.1745 ]
    },
    "properties": {
    "Name":"West Rigolets Lighthouse",
    "Location":" Lake Pontchartrain",
    "State":"  LA"
    }
  },
  {
    "type": "Feature",
    "geometry": {
       "type": "Point",
       "coordinates":  [ -70.6817,42.6616 ]
    },
    "properties": {
    "Name":"Annisquam Lighthouse",
    "Location":" Annisquam Harbor",
    "State":"  MA"
    }
  },
  {
    "type": "Feature",
    "geometry": {
       "type": "Point",
       "coordinates":  [ -70.7861,42.5364 ]
    },
    "properties": {
    "Name":"Bakers Island Lighthouse",
    "Location":" Bakers Island",
    "State":"  MA"
    }
  },
  {
    "type": "Feature",
    "geometry": {
       "type": "Point",
       "coordinates":  [ -70.169,41.652 ]
    },
    "properties": {
    "Name":"Bass River(West Dennis) Lighthouse",
    "Location":" West Dennis",
    "State":"  MA"
    }
  },
  {
    "type": "Feature",
    "geometry": {
       "type": "Point",
       "coordinates":  [ -70.7172,41.6694 ]
    },
    "properties": {
    "Name":"Bird Island Lighthouse",
    "Location":" Bird Island",
    "State":"  MA"
    }
  },
  {
    "type": "Feature",
    "geometry": {
       "type": "Point",
       "coordinates":  [ -70.218,41.6003 ]
    },
    "properties": {
    "Name":"Bishop & Clerks Light",
    "Location":" Point Gammon",
    "State":"  MA"
    }
  },
  {
    "type": "Feature",
    "geometry": {
       "type": "Point",
       "coordinates":  [ -71.175,41.705 ]
    },
    "properties": {
    "Name":"Borden Flats Lighthouse",
    "Location":" Fall River",
    "State":"  MA"
    }
  },
  {
    "type": "Feature",
    "geometry": {
       "type": "Point",
       "coordinates":  [ -70.89,42.3281 ]
    },
    "properties": {
    "Name":"Boston Harbor Lighthouse",
    "Location":" Boston Harbor",
    "State":"  MA"
    }
  },
  {
    "type": "Feature",
    "geometry": {
       "type": "Point",
       "coordinates":  [ -70.0922,41.2896 ]
    },
    "properties": {
    "Name":"Brant Point (Old) Lighthouse",
    "Location":" Nantucket Harbor Coast Guard Base",
    "State":"  MA"
    }
  },
  {
    "type": "Feature",
    "geometry": {
       "type": "Point",
       "coordinates":  [ -70.09028,41.28971 ]
    },
    "properties": {
    "Name":"Brant Point Light",
    "Location":" Nantucket Harbor",
    "State":"  MA"
    }
  },
  {
    "type": "Feature",
    "geometry": {
       "type": "Point",
       "coordinates":  [ -70.895,41.6033 ]
    },
    "properties": {
    "Name":"Butler Flats Lighthouse",
    "Location":" New Bedford Harbor",
    "State":"  MA"
    }
  },
  {
    "type": "Feature",
    "geometry": {
       "type": "Point",
       "coordinates":  [ -70.5752,42.6372 ]
    },
    "properties": {
    "Name":"Cape Ann(Thatcher Island) Lighthouse",
    "Location":" Thatcher Island",
    "State":"  MA"
    }
  },
  {
    "type": "Feature",
    "geometry": {
       "type": "Point",
       "coordinates":  [ -70.0605,42.0394 ]
    },
    "properties": {
    "Name":"Cape Cod (Highland) Lighthouse",
    "Location":" Truro",
    "State":"  MA"
    }
  },
  {
    "type": "Feature",
    "geometry": {
       "type": "Point",
       "coordinates":  [ -70.4523,41.4202 ]
    },
    "properties": {
    "Name":"Cape Poge Light",
    "Location":"  Chappaquiddick Island",
    "State":"  MA"
    }
  },
  {
    "type": "Feature",
    "geometry": {
       "type": "Point",
       "coordinates":  [ -69.95,41.6717 ]
    },
    "properties": {
    "Name":"Chatham Lighthouse",
    "Location":" Chatham",
    "State":"  MA"
    }
  },
  {
    "type": "Feature",
    "geometry": {
       "type": "Point",
       "coordinates":  [ -70.90071,41.5928 ]
    },
    "properties": {
    "Name":"Clark's Point Lighthouse",
    "Location":" New Bedford Harbor",
    "State":"  MA"
    }
  },
  {
    "type": "Feature",
    "geometry": {
       "type": "Point",
       "coordinates":  [ -70.695,41.6317 ]
    },
    "properties": {
    "Name":"Cleveland Ledge Lighthouse",
    "Location":" Buzzards Bay",
    "State":"  MA"
    }
  },
  {
    "type": "Feature",
    "geometry": {
       "type": "Point",
       "coordinates":  [ -70.95,41.4133 ]
    },
    "properties": {
    "Name":"Cuttyhunk Light",
    "Location":" Cuttyhunk Island",
    "State":"  MA"
    }
  },
  {
    "type": "Feature",
    "geometry": {
       "type": "Point",
       "coordinates":  [ -70.9544,42.3397 ]
    },
    "properties": {
    "Name":"Deer Island Light",
    "Location":" Deer Island",
    "State":"  MA"
    }
  },
  {
    "type": "Feature",
    "geometry": {
       "type": "Point",
       "coordinates":  [ -70.8836,42.5168 ]
    },
    "properties": {
    "Name":"Derby Wharf Light",
    "Location":" Salem",
    "State":"  MA"
    }
  },
  {
    "type": "Feature",
    "geometry": {
       "type": "Point",
       "coordinates":  [ -70.6723,42.583 ]
    },
    "properties": {
    "Name":"Dog Bar Breakwater Light",
    "Location":" Gloucester",
    "State":"  MA"
    }
  },
  {
    "type": "Feature",
    "geometry": {
       "type": "Point",
       "coordinates":  [ -70.6486,41.9878 ]
    },
    "properties": {
    "Name":"Duxbury Pier Light",
    "Location":" Plymouth Bay",
    "State":"  MA"
    }
  },
  {
    "type": "Feature",
    "geometry": {
       "type": "Point",
       "coordinates":  [ -70.5675,41.4702 ]
    },
    "properties": {
    "Name":"East Chop Lighthouse",
    "Location":" Martha's Vineyard",
    "State":"  MA"
    }
  },
  {
    "type": "Feature",
    "geometry": {
       "type": "Point",
       "coordinates":  [ -70.6642,42.5805 ]
    },
    "properties": {
    "Name":"Eastern Point Lighthouse",
    "Location":" Gloucester",
    "State":"  MA"
    }
  },
  {
    "type": "Feature",
    "geometry": {
       "type": "Point",
       "coordinates":  [ -70.5032,41.3904 ]
    },
    "properties": {
    "Name":"Edgartown Harbor Light",
    "Location":" Martha's Vineyard",
    "State":"  MA"
    }
  },
  {
    "type": "Feature",
    "geometry": {
       "type": "Point",
       "coordinates":  [ -70.8666,42.5267 ]
    },
    "properties": {
    "Name":"Fort Pickering(Winter Island) Light",
    "Location":" Winter Island",
    "State":"  MA"
    }
  },
  {
    "type": "Feature",
    "geometry": {
       "type": "Point",
       "coordinates":  [ -70.835,41.3483 ]
    },
    "properties": {
    "Name":"Gay Head Lighthouse",
    "Location":" Martha's Vineyard",
    "State":"  MA"
    }
  },
  {
    "type": "Feature",
    "geometry": {
       "type": "Point",
       "coordinates":  [ -70.8695,42.3646 ]
    },
    "properties": {
    "Name":"Graves Light",
    "Location":" Boston Harbor",
    "State":"  MA"
    }
  },
  {
    "type": "Feature",
    "geometry": {
       "type": "Point",
       "coordinates":  [ -70.0481,41.3903 ]
    },
    "properties": {
    "Name":"Great Point Lighthouse",
    "Location":" Nantucket",
    "State":"  MA"
    }
  },
  {
    "type": "Feature",
    "geometry": {
       "type": "Point",
       "coordinates":  [ -70.8564,42.5463 ]
    },
    "properties": {
    "Name":"Hospital Point Range Front Light",
    "Location":" Beverly Harbor",
    "State":"  MA"
    }
  },
  {
    "type": "Feature",
    "geometry": {
       "type": "Point",
       "coordinates":  [ -70.8782,42.5487 ]
    },
    "properties": {
    "Name":"Hospital Point Range Rear Light",
    "Location":" Beverly",
    "State":"  MA"
    }
  },
  {
    "type": "Feature",
    "geometry": {
       "type": "Point",
       "coordinates":  [ -70.28833,41.636070000000004 ]
    },
    "properties": {
    "Name":"Hyannis Lighthouse",
    "Location":" Hyannis Harbor",
    "State":"  MA"
    }
  },
  {
    "type": "Feature",
    "geometry": {
       "type": "Point",
       "coordinates":  [ -70.9575,42.33 ]
    },
    "properties": {
    "Name":"Long Island Head Lighthouse",
    "Location":" Boston Harbor",
    "State":"  MA"
    }
  },
  {
    "type": "Feature",
    "geometry": {
       "type": "Point",
       "coordinates":  [ -70.16873000000001,42.033 ]
    },
    "properties": {
    "Name":"Long Point Lighthouse",
    "Location":" Provincetown",
    "State":"  MA"
    }
  },
  {
    "type": "Feature",
    "geometry": {
       "type": "Point",
       "coordinates":  [ -70.8335,42.5052 ]
    },
    "properties": {
    "Name":"Marblehead Light",
    "Location":" Marblehead Neck",
    "State":"  MA"
    }
  },
  {
    "type": "Feature",
    "geometry": {
       "type": "Point",
       "coordinates":  [ -70.0323,41.9305 ]
    },
    "properties": {
    "Name":"Mayo Beach Lighthouse",
    "Location":" Mayo Beach",
    "State":"  MA"
    }
  },
  {
    "type": "Feature",
    "geometry": {
       "type": "Point",
       "coordinates":  [ -70.7583,42.27 ]
    },
    "properties": {
    "Name":"Minot's Ledge Lighthouse",
    "Location":" Minot",
    "State":"  MA"
    }
  },
  {
    "type": "Feature",
    "geometry": {
       "type": "Point",
       "coordinates":  [ -69.993,41.5592 ]
    },
    "properties": {
    "Name":"Monomoy Point Lighthouse",
    "Location":" South Monomoy Island",
    "State":"  MA"
    }
  },
  {
    "type": "Feature",
    "geometry": {
       "type": "Point",
       "coordinates":  [ -70.1063,41.2937 ]
    },
    "properties": {
    "Name":"Nantucket Cliff Range Light",
    "Location":" Nantucket",
    "State":"  MA"
    }
  },
  {
    "type": "Feature",
    "geometry": {
       "type": "Point",
       "coordinates":  [ -70.7124,41.7562 ]
    },
    "properties": {
    "Name":"Nantucket II Lightship",
    "Location":" Wareham",
    "State":"   MA"
    }
  },
  {
    "type": "Feature",
    "geometry": {
       "type": "Point",
       "coordinates":  [ -70.91929,41.635740000000006 ]
    },
    "properties": {
    "Name":"Nantucket Lightship",
    "Location":" Nantucket or Boston",
    "State":"  MA"
    }
  },
  {
    "type": "Feature",
    "geometry": {
       "type": "Point",
       "coordinates":  [ -69.953,41.8602 ]
    },
    "properties": {
    "Name":"Nauset Lighthouse",
    "Location":" North Eastham",
    "State":"  MA"
    }
  },
  {
    "type": "Feature",
    "geometry": {
       "type": "Point",
       "coordinates":  [ -70.9184,41.6352 ]
    },
    "properties": {
    "Name":"New Bedford Lightship",
    "Location":" New Bedford",
    "State":"  MA"
    }
  },
  {
    "type": "Feature",
    "geometry": {
       "type": "Point",
       "coordinates":  [ -70.79535,41.65109 ]
    },
    "properties": {
    "Name":"Ned's Point Light",
    "Location":" Mattapoisett",
    "State":"  MA"
    }
  },
  {
    "type": "Feature",
    "geometry": {
       "type": "Point",
       "coordinates":  [ -70.8183,42.815 ]
    },
    "properties": {
    "Name":"Newburyport Harbor (Plum Island) Light",
    "Location":" Plum Island",
    "State":"  MA"
    }
  },
  {
    "type": "Feature",
    "geometry": {
       "type": "Point",
       "coordinates":  [ -70.86299,42.8105 ]
    },
    "properties": {
    "Name":"Newburyport Harbor Range Front Light",
    "Location":" Newburyport",
    "State":"  MA"
    }
  },
  {
    "type": "Feature",
    "geometry": {
       "type": "Point",
       "coordinates":  [ -70.8657,42.81100000000001 ]
    },
    "properties": {
    "Name":"Newburyport Harbor Range Rear Light",
    "Location":" Newburyport",
    "State":"  MA"
    }
  },
  {
    "type": "Feature",
    "geometry": {
       "type": "Point",
       "coordinates":  [ -70.655,41.516000000000005 ]
    },
    "properties": {
    "Name":"Nobska Point Lighthouse",
    "Location":" Woods Hole",
    "State":"  MA"
    }
  },
  {
    "type": "Feature",
    "geometry": {
       "type": "Point",
       "coordinates":  [ -70.90948,41.62637 ]
    },
    "properties": {
    "Name":"Palmer Island Light",
    "Location":" New Bedford",
    "State":"  MA"
    }
  },
  {
    "type": "Feature",
    "geometry": {
       "type": "Point",
       "coordinates":  [ -70.59978000000001,42.0036 ]
    },
    "properties": {
    "Name":"Plymouth (Gurnet) Lighthouse",
    "Location":" Gurnet Peninsula",
    "State":"  MA"
    }
  },
  {
    "type": "Feature",
    "geometry": {
       "type": "Point",
       "coordinates":  [ -70.26529000000001,41.610209999999995 ]
    },
    "properties": {
    "Name":"Point Gammon Light",
    "Location":" Hyannis Harbor",
    "State":"  MA"
    }
  },
  {
    "type": "Feature",
    "geometry": {
       "type": "Point",
       "coordinates":  [ -70.2433,42.0623 ]
    },
    "properties": {
    "Name":"Race Point Lighthouse",
    "Location":" Race Point Beach",
    "State":"  MA"
    }
  },
  {
    "type": "Feature",
    "geometry": {
       "type": "Point",
       "coordinates":  [ -70.2748,41.7246 ]
    },
    "properties": {
    "Name":"Sandy Neck Lighthouse",
    "Location":" Sandy Neck",
    "State":"  MA"
    }
  },
  {
    "type": "Feature",
    "geometry": {
       "type": "Point",
       "coordinates":  [ -69.9651,41.2832 ]
    },
    "properties": {
    "Name":"Sankaty Head Lighthouse",
    "Location":" Nantucket",
    "State":"  MA"
    }
  },
  {
    "type": "Feature",
    "geometry": {
       "type": "Point",
       "coordinates":  [ -70.7155,42.2049 ]
    },
    "properties": {
    "Name":"Scituate Lighthouse",
    "Location":" Scituate Harbor",
    "State":"  MA"
    }
  },
  {
    "type": "Feature",
    "geometry": {
       "type": "Point",
       "coordinates":  [ -69.985,41.6584 ]
    },
    "properties": {
    "Name":"Stage Harbor Lighthouse",
    "Location":" Stage Harbor",
    "State":"  MA"
    }
  },
  {
    "type": "Feature",
    "geometry": {
       "type": "Point",
       "coordinates":  [ -70.5881,42.662 ]
    },
    "properties": {
    "Name":"Straitsmouth Island Lighthouse",
    "Location":" Straitsmouth Island",
    "State":"  MA"
    }
  },
  {
    "type": "Feature",
    "geometry": {
       "type": "Point",
       "coordinates":  [ -70.7584,41.4691 ]
    },
    "properties": {
    "Name":"Tarpaulin Cove Light",
    "Location":" Naushon Island",
    "State":"  MA"
    }
  },
  {
    "type": "Feature",
    "geometry": {
       "type": "Point",
       "coordinates":  [ -70.6653,42.6018 ]
    },
    "properties": {
    "Name":"Ten Pound Island Light",
    "Location":" Ten Pound Island",
    "State":"  MA"
    }
  },
  {
    "type": "Feature",
    "geometry": {
       "type": "Point",
       "coordinates":  [ -69.95775,41.858999999999995 ]
    },
    "properties": {
    "Name":"Three Sisters Light",
    "Location":" North Eastham",
    "State":"  MA"
    }
  },
  {
    "type": "Feature",
    "geometry": {
       "type": "Point",
       "coordinates":  [ -70.6,41.4808 ]
    },
    "properties": {
    "Name":"West Chop Lighthouse",
    "Location":" Vineyard Haven",
    "State":"  MA"
    }
  },
  {
    "type": "Feature",
    "geometry": {
       "type": "Point",
       "coordinates":  [ -70.6593,41.6829 ]
    },
    "properties": {
    "Name":"Wings Neck Lighthouse",
    "Location":" Buzzards Bay",
    "State":"  MA"
    }
  },
  {
    "type": "Feature",
    "geometry": {
       "type": "Point",
       "coordinates":  [ -70.1933,42.0217 ]
    },
    "properties": {
    "Name":"Wood End Lighthouse",
    "Location":" Provincetown",
    "State":"  MA"
    }
  },
  {
    "type": "Feature",
    "geometry": {
       "type": "Point",
       "coordinates":  [ -76.399,39.0592 ]
    },
    "properties": {
    "Name":"Baltimore Harbor Light",
    "Location":" Chesapeake Bay",
    "State":"  MD"
    }
  },
  {
    "type": "Feature",
    "geometry": {
       "type": "Point",
       "coordinates":  [ -75.8095,39.5273 ]
    },
    "properties": {
    "Name":"Bethel Bridge Light",
    "Location":" Chesapeake City",
    "State":"  MD"
    }
  },
  {
    "type": "Feature",
    "geometry": {
       "type": "Point",
       "coordinates":  [ -76.742886,38.208833 ]
    },
    "properties": {
    "Name":"Blackistone Lighthouse",
    "Location":" St Clement's Island",
    "State":" MD"
    }
  },
  {
    "type": "Feature",
    "geometry": {
       "type": "Point",
       "coordinates":  [ -76.3914,38.8332 ]
    },
    "properties": {
    "Name":"Bloody Point Bar Light",
    "Location":" Kent Island",
    "State":"  MD"
    }
  },
  {
    "type": "Feature",
    "geometry": {
       "type": "Point",
       "coordinates":  [ -76.6086,39.2857 ]
    },
    "properties": {
    "Name":"Chesapeake Lightship",
    "Location":" Baltimore's Inner Harbor",
    "State":"  MD"
    }
  },
  {
    "type": "Feature",
    "geometry": {
       "type": "Point",
       "coordinates":  [ -76.0847,39.5408 ]
    },
    "properties": {
    "Name":"Concord Point Light",
    "Location":" Havre de Grace",
    "State":"  MD"
    }
  },
  {
    "type": "Feature",
    "geometry": {
       "type": "Point",
       "coordinates":  [ -76.3818,38.3861 ]
    },
    "properties": {
    "Name":"Cove Point Lighthouse",
    "Location":" Cove Point",
    "State":"  MD"
    }
  },
  {
    "type": "Feature",
    "geometry": {
       "type": "Point",
       "coordinates":  [ -76.3822,39.2032 ]
    },
    "properties": {
    "Name":"Craighill Channel Lower Front Lighthouse",
    "Location":" North Point State Park",
    "State":"  MD"
    }
  },
  {
    "type": "Feature",
    "geometry": {
       "type": "Point",
       "coordinates":  [ -76.3942,39.2291 ]
    },
    "properties": {
    "Name":"Craighill Channel Lower Rear Light",
    "Location":" Ramona Beach",
    "State":"  MD"
    }
  },
  {
    "type": "Feature",
    "geometry": {
       "type": "Point",
       "coordinates":  [ -76.4482,39.1972 ]
    },
    "properties": {
    "Name":"Craighill Channel Upper Front Light",
    "Location":" Fort Howard",
    "State":"  MD"
    }
  },
  {
    "type": "Feature",
    "geometry": {
       "type": "Point",
       "coordinates":  [ -76.4628,39.2163 ]
    },
    "properties": {
    "Name":"Craighill Channel Upper Rear Light",
    "Location":" Bay Front Road",
    "State":"  MD"
    }
  },
  {
    "type": "Feature",
    "geometry": {
       "type": "Point",
       "coordinates":  [ -76.4634,38.330999999999996 ]
    },
    "properties": {
    "Name":"Drum Point Lighthouse",
    "Location":" Solomons",
    "State":"  MD"
    }
  },
  {
    "type": "Feature",
    "geometry": {
       "type": "Point",
       "coordinates":  [ -76.083,39.4945 ]
    },
    "properties": {
    "Name":"Fishing Battery Lighthouse",
    "Location":" Fishing Battery Island",
    "State":"  MD"
    }
  },
  {
    "type": "Feature",
    "geometry": {
       "type": "Point",
       "coordinates":  [ -76.5195,39.2147 ]
    },
    "properties": {
    "Name":"Fort Carroll Light",
    "Location":" Patapsco River",
    "State":"  MD"
    }
  },
  {
    "type": "Feature",
    "geometry": {
       "type": "Point",
       "coordinates":  [ -77.0368,38.7123 ]
    },
    "properties": {
    "Name":"Fort Washington Light",
    "Location":" Fort Washington",
    "State":"  MD"
    }
  },
  {
    "type": "Feature",
    "geometry": {
       "type": "Point",
       "coordinates":  [ -76.2499,38.2564 ]
    },
    "properties": {
    "Name":"Hooper Island Light",
    "Location":" Chesapeake Bay",
    "State":"  MD"
    }
  },
  {
    "type": "Feature",
    "geometry": {
       "type": "Point",
       "coordinates":  [ -76.2186,38.788000000000004 ]
    },
    "properties": {
    "Name":"Hooper Strait Lighthouse",
    "Location":" St. Michaels",
    "State":"  MD"
    }
  },
  {
    "type": "Feature",
    "geometry": {
       "type": "Point",
       "coordinates":  [ -76.5715,39.262 ]
    },
    "properties": {
    "Name":"Lazaretto Point Light",
    "Location":" Fort McHenry",
    "State":"  MD"
    }
  },
  {
    "type": "Feature",
    "geometry": {
       "type": "Point",
       "coordinates":  [ -76.5296,38.1354 ]
    },
    "properties": {
    "Name":"Piney Point Light",
    "Location":" Piney Point",
    "State":"  MD"
    }
  },
  {
    "type": "Feature",
    "geometry": {
       "type": "Point",
       "coordinates":  [ -76.3224,38.0381 ]
    },
    "properties": {
    "Name":"Point Lookout Lighthouse",
    "Location":" Point Lookout State Park",
    "State":"  MD"
    }
  },
  {
    "type": "Feature",
    "geometry": {
       "type": "Point",
       "coordinates":  [ -76.29,38.1283 ]
    },
    "properties": {
    "Name":"Point No Point Lighthouse",
    "Location":" Chesapeake Bay",
    "State":"  MD"
    }
  },
  {
    "type": "Feature",
    "geometry": {
       "type": "Point",
       "coordinates":  [ -76.2699,39.2792 ]
    },
    "properties": {
    "Name":"Poole's Island Light",
    "Location":" Pooles Island",
    "State":"  MD"
    }
  },
  {
    "type": "Feature",
    "geometry": {
       "type": "Point",
       "coordinates":  [ -76.385,39.0167 ]
    },
    "properties": {
    "Name":"Sandy Point Shoals Lighthouse",
    "Location":" Chesapeake Bay",
    "State":"  MD"
    }
  },
  {
    "type": "Feature",
    "geometry": {
       "type": "Point",
       "coordinates":  [ -76.6054,39.2836 ]
    },
    "properties": {
    "Name":"Seven Foot Knoll Lighthouse",
    "Location":" Baltimore's Inner Harbor",
    "State":"  MD"
    }
  },
  {
    "type": "Feature",
    "geometry": {
       "type": "Point",
       "coordinates":  [ -76.3749,38.6382 ]
    },
    "properties": {
    "Name":"Sharps Island Light",
    "Location":" Tilghman Island",
    "State":"  MD"
    }
  },
  {
    "type": "Feature",
    "geometry": {
       "type": "Point",
       "coordinates":  [ -76.0151,38.0484 ]
    },
    "properties": {
    "Name":"Solomon's Lump Light",
    "Location":" Charter boat out of Wenona",
    "State":"  MD"
    }
  },
  {
    "type": "Feature",
    "geometry": {
       "type": "Point",
       "coordinates":  [ -76.436,38.8991 ]
    },
    "properties": {
    "Name":"Thomas Point Shoals Lighthouse",
    "Location":" Thomas Point",
    "State":"  MD"
    }
  },
  {
    "type": "Feature",
    "geometry": {
       "type": "Point",
       "coordinates":  [ -76.0085,39.4498 ]
    },
    "properties": {
    "Name":"Turkey Point Light",
    "Location":" Elk Neck State Park",
    "State":"  MD"
    }
  },
  {
    "type": "Feature",
    "geometry": {
       "type": "Point",
       "coordinates":  [ -68.199,44.2415 ]
    },
    "properties": {
    "Name":"Baker Island Lighthouse",
    "Location":" Baker Island",
    "State":"  ME"
    }
  },
  {
    "type": "Feature",
    "geometry": {
       "type": "Point",
       "coordinates":  [ -68.3372,44.2221 ]
    },
    "properties": {
    "Name":"Bass Harbor Lighthouse",
    "Location":" Bass Harbor",
    "State":"  ME"
    }
  },
  {
    "type": "Feature",
    "geometry": {
       "type": "Point",
       "coordinates":  [ -68.2699,44.2836 ]
    },
    "properties": {
    "Name":"Bear Island Lighthouse",
    "Location":" Bear Island",
    "State":"  ME"
    }
  },
  {
    "type": "Feature",
    "geometry": {
       "type": "Point",
       "coordinates":  [ -68.4985,44.2488 ]
    },
    "properties": {
    "Name":"Blue Hill Bay Lighthouse",
    "Location":" Green Island",
    "State":"  ME"
    }
  },
  {
    "type": "Feature",
    "geometry": {
       "type": "Point",
       "coordinates":  [ -70.48,43.117 ]
    },
    "properties": {
    "Name":"Boon Island Lighthouse",
    "Location":" Boon Island",
    "State":"  ME"
    }
  },
  {
    "type": "Feature",
    "geometry": {
       "type": "Point",
       "coordinates":  [ -68.9099,44.1116 ]
    },
    "properties": {
    "Name":"Browns Head Lighthouse",
    "Location":" Vinalhaven Island",
    "State":"  ME"
    }
  },
  {
    "type": "Feature",
    "geometry": {
       "type": "Point",
       "coordinates":  [ -68.4472,44.1343 ]
    },
    "properties": {
    "Name":"Burnt Coat Habor(Hockamock Head)Lighthouse",
    "Location":" Swans Island",
    "State":"  ME"
    }
  },
  {
    "type": "Feature",
    "geometry": {
       "type": "Point",
       "coordinates":  [ -69.64,43.825 ]
    },
    "properties": {
    "Name":"Burnt Island Lighthouse",
    "Location":" Boothbay Harbor",
    "State":"  ME"
    }
  },
  {
    "type": "Feature",
    "geometry": {
       "type": "Point",
       "coordinates":  [ -70.2,43.5666 ]
    },
    "properties": {
    "Name":"Cape Elizabeth Lighthouse",
    "Location":" Cape Elizabeth",
    "State":"  ME"
    }
  },
  {
    "type": "Feature",
    "geometry": {
       "type": "Point",
       "coordinates":  [ -70.5913,43.165 ]
    },
    "properties": {
    "Name":"Cape Neddick(Nubble) Lighthouse",
    "Location":" York Beach",
    "State":"  ME"
    }
  },
  {
    "type": "Feature",
    "geometry": {
       "type": "Point",
       "coordinates":  [ -69.65,43.7798 ]
    },
    "properties": {
    "Name":"Cuckolds Light",
    "Location":" Southport Island",
    "State":"  ME"
    }
  },
  {
    "type": "Feature",
    "geometry": {
       "type": "Point",
       "coordinates":  [ -69.04899999999999,44.2016 ]
    },
    "properties": {
    "Name":"Curtis Island Lighthouse",
    "Location":" Camden",
    "State":"  ME"
    }
  },
  {
    "type": "Feature",
    "geometry": {
       "type": "Point",
       "coordinates":  [ -68.81848000000001,44.38313 ]
    },
    "properties": {
    "Name":"Dice Head Lighthouse",
    "Location":" Castine",
    "State":"  ME"
    }
  },
  {
    "type": "Feature",
    "geometry": {
       "type": "Point",
       "coordinates":  [ -69.807,43.8833 ]
    },
    "properties": {
    "Name":"Doubling Point Light",
    "Location":" Arrowsic Island",
    "State":"  ME"
    }
  },
  {
    "type": "Feature",
    "geometry": {
       "type": "Point",
       "coordinates":  [ -68.7683,44.2183 ]
    },
    "properties": {
    "Name":"Eagle Island Lighthouse",
    "Location":" Eagle Island",
    "State":"  ME"
    }
  },
  {
    "type": "Feature",
    "geometry": {
       "type": "Point",
       "coordinates":  [ -68.138,44.3541 ]
    },
    "properties": {
    "Name":"Egg Rock Lighthouse",
    "Location":" Rock Island",
    "State":"  ME"
    }
  },
  {
    "type": "Feature",
    "geometry": {
       "type": "Point",
       "coordinates":  [ -68.8118,44.4675 ]
    },
    "properties": {
    "Name":"Fort Point Lighthouse",
    "Location":" Fort Point State Park",
    "State":"  ME"
    }
  },
  {
    "type": "Feature",
    "geometry": {
       "type": "Point",
       "coordinates":  [ -69.375,43.8917 ]
    },
    "properties": {
    "Name":"Franklin Island Light",
    "Location":" Franklin Island",
    "State":"  ME"
    }
  },
  {
    "type": "Feature",
    "geometry": {
       "type": "Point",
       "coordinates":  [ -70.4249,43.3583 ]
    },
    "properties": {
    "Name":"Goat Island Lighthouse",
    "Location":" Goat Island",
    "State":"  ME"
    }
  },
  {
    "type": "Feature",
    "geometry": {
       "type": "Point",
       "coordinates":  [ -68.8316,44.1353 ]
    },
    "properties": {
    "Name":"Goose Rocks Light",
    "Location":" Fox Islands Thorofare",
    "State":"  ME"
    }
  },
  {
    "type": "Feature",
    "geometry": {
       "type": "Point",
       "coordinates":  [ -68.24600000000001,44.1423 ]
    },
    "properties": {
    "Name":"Great Duck Island Lighthouse",
    "Location":" Great Duck Island",
    "State":"  ME"
    }
  },
  {
    "type": "Feature",
    "geometry": {
       "type": "Point",
       "coordinates":  [ -68.9433,44.2817 ]
    },
    "properties": {
    "Name":"Grindle Point Lighthouse",
    "Location":" Islesboro Island",
    "State":"  ME"
    }
  },
  {
    "type": "Feature",
    "geometry": {
       "type": "Point",
       "coordinates":  [ -70.0369,43.6558 ]
    },
    "properties": {
    "Name":"Halfway Rock Light",
    "Location":" Middle of Casco Bay",
    "State":"  ME"
    }
  },
  {
    "type": "Feature",
    "geometry": {
       "type": "Point",
       "coordinates":  [ -69.69,43.8234 ]
    },
    "properties": {
    "Name":"Hendricks Head Lighthouse",
    "Location":" Southport Island",
    "State":"  ME"
    }
  },
  {
    "type": "Feature",
    "geometry": {
       "type": "Point",
       "coordinates":  [ -68.8616,44.025 ]
    },
    "properties": {
    "Name":"Heron Neck Lighthouse",
    "Location":" Green Island",
    "State":"  ME"
    }
  },
  {
    "type": "Feature",
    "geometry": {
       "type": "Point",
       "coordinates":  [ -69.0604,44.1658 ]
    },
    "properties": {
    "Name":"Indian Island Lighthouse",
    "Location":" Indian Island",
    "State":"  ME"
    }
  },
  {
    "type": "Feature",
    "geometry": {
       "type": "Point",
       "coordinates":  [ -68.6517,44.065 ]
    },
    "properties": {
    "Name":"Isle au Haut Light",
    "Location":" Isle au Haut",
    "State":"  ME"
    }
  },
  {
    "type": "Feature",
    "geometry": {
       "type": "Point",
       "coordinates":  [ -69.7949,43.8833 ]
    },
    "properties": {
    "Name":"Kennebec River (Doubling Point) Range Light",
    "Location":" Arrowsic Island",
    "State":"  ME"
    }
  },
  {
    "type": "Feature",
    "geometry": {
       "type": "Point",
       "coordinates":  [ -69.8965,44.303999999999995 ]
    },
    "properties": {
    "Name":"Ladies Delight Light",
    "Location":" in Lake Cobbosseecontee",
    "State":"  ME"
    }
  },
  {
    "type": "Feature",
    "geometry": {
       "type": "Point",
       "coordinates":  [ -67.3666,44.5684 ]
    },
    "properties": {
    "Name":"Libby Island Light",
    "Location":" Libby Island",
    "State":"  ME"
    }
  },
  {
    "type": "Feature",
    "geometry": {
       "type": "Point",
       "coordinates":  [ -67.1926,44.6511 ]
    },
    "properties": {
    "Name":"Little River Lighthouse",
    "Location":" Little River Island",
    "State":"  ME"
    }
  },
  {
    "type": "Feature",
    "geometry": {
       "type": "Point",
       "coordinates":  [ -66.9768,44.8414 ]
    },
    "properties": {
    "Name":"Lubec Channel Light",
    "Location":" Lubec Channel",
    "State":"  ME"
    }
  },
  {
    "type": "Feature",
    "geometry": {
       "type": "Point",
       "coordinates":  [ -67.1017,44.5017 ]
    },
    "properties": {
    "Name":"Machias Seal Island Lighthouse",
    "Location":" Machias Seal Island",
    "State":"  ME"
    }
  },
  {
    "type": "Feature",
    "geometry": {
       "type": "Point",
       "coordinates":  [ -68.7032,44.13397 ]
    },
    "properties": {
    "Name":"Mark Island (Deer Island Thorofare)Light",
    "Location":" Mark Island",
    "State":"  ME"
    }
  },
  {
    "type": "Feature",
    "geometry": {
       "type": "Point",
       "coordinates":  [ -69.26111,43.91806 ]
    },
    "properties": {
    "Name":"Marshall Point Light",
    "Location":" Port Clyde",
    "State":"  ME"
    }
  },
  {
    "type": "Feature",
    "geometry": {
       "type": "Point",
       "coordinates":  [ -68.8549,43.7841 ]
    },
    "properties": {
    "Name":"Matinicus Rock Lighthouse",
    "Location":" Matinicus Rock",
    "State":"  ME"
    }
  },
  {
    "type": "Feature",
    "geometry": {
       "type": "Point",
       "coordinates":  [ -69.315,43.765 ]
    },
    "properties": {
    "Name":"Monhegan Island Lighthouse",
    "Location":" Monhegan Island",
    "State":"  ME"
    }
  },
  {
    "type": "Feature",
    "geometry": {
       "type": "Point",
       "coordinates":  [ -67.5331,44.4745 ]
    },
    "properties": {
    "Name":"Moose Peak(Mistake Island) Light",
    "Location":" Mistake Island",
    "State":"  ME"
    }
  },
  {
    "type": "Feature",
    "geometry": {
       "type": "Point",
       "coordinates":  [ -68.12819,43.96849 ]
    },
    "properties": {
    "Name":"Mount Desert Rock Lighthouse",
    "Location":" Mount Desert Rock",
    "State":"  ME"
    }
  },
  {
    "type": "Feature",
    "geometry": {
       "type": "Point",
       "coordinates":  [ -67.8332,44.4554 ]
    },
    "properties": {
    "Name":"Narraguagus(Pond Island) Lighthouse",
    "Location":" Pond Island",
    "State":"  ME"
    }
  },
  {
    "type": "Feature",
    "geometry": {
       "type": "Point",
       "coordinates":  [ -67.7457,44.4638 ]
    },
    "properties": {
    "Name":"Nash Island Light",
    "Location":" Nash Island",
    "State":"  ME"
    }
  },
  {
    "type": "Feature",
    "geometry": {
       "type": "Point",
       "coordinates":  [ -69.0441,44.0921 ]
    },
    "properties": {
    "Name":"Owls Head Light",
    "Location":" Rockland Harbor",
    "State":"  ME"
    }
  },
  {
    "type": "Feature",
    "geometry": {
       "type": "Point",
       "coordinates":  [ -69.5066,43.8366 ]
    },
    "properties": {
    "Name":"Pemaquid Point Lighthouse",
    "Location":" Pemaquid Point",
    "State":"  ME"
    }
  },
  {
    "type": "Feature",
    "geometry": {
       "type": "Point",
       "coordinates":  [ -69.7852,43.7867 ]
    },
    "properties": {
    "Name":"Perkins Island Light",
    "Location":" Perkins Island",
    "State":"  ME"
    }
  },
  {
    "type": "Feature",
    "geometry": {
       "type": "Point",
       "coordinates":  [ -67.865,44.3684 ]
    },
    "properties": {
    "Name":"Petit Manan Light Petit Manan Island",
    "Location":"  ME",
    "State":""
    }
  },
  {
    "type": "Feature",
    "geometry": {
       "type": "Point",
       "coordinates":  [ -69.77,43.74 ]
    },
    "properties": {
    "Name":"Pond Island Light",
    "Location":" Popham Beach",
    "State":"  ME"
    }
  },
  {
    "type": "Feature",
    "geometry": {
       "type": "Point",
       "coordinates":  [ -70.2349,43.6555 ]
    },
    "properties": {
    "Name":"Portland Breakwater Light",
    "Location":" South Portland",
    "State":"  ME"
    }
  },
  {
    "type": "Feature",
    "geometry": {
       "type": "Point",
       "coordinates":  [ -70.2078,43.6233 ]
    },
    "properties": {
    "Name":"Portland Head Lighthouse",
    "Location":" Portland",
    "State":"  ME"
    }
  },
  {
    "type": "Feature",
    "geometry": {
       "type": "Point",
       "coordinates":  [ -68.0128,44.4034 ]
    },
    "properties": {
    "Name":"Prospect Harbor Lighthouse",
    "Location":" Prospect Harbor",
    "State":"  ME"
    }
  },
  {
    "type": "Feature",
    "geometry": {
       "type": "Point",
       "coordinates":  [ -68.7432,44.3092 ]
    },
    "properties": {
    "Name":"Pumpkin Island Lighthouse",
    "Location":" Pumpkin Island",
    "State":"  ME"
    }
  },
  {
    "type": "Feature",
    "geometry": {
       "type": "Point",
       "coordinates":  [ -69.6,43.8034 ]
    },
    "properties": {
    "Name":"Ram Island Light",
    "Location":" Boothbay Harbor",
    "State":"  ME"
    }
  },
  {
    "type": "Feature",
    "geometry": {
       "type": "Point",
       "coordinates":  [ -70.1867,43.6317 ]
    },
    "properties": {
    "Name":"Ram Island Ledge Light",
    "Location":" Ram Island",
    "State":"  ME"
    }
  },
  {
    "type": "Feature",
    "geometry": {
       "type": "Point",
       "coordinates":  [ -69.0783,44.1033 ]
    },
    "properties": {
    "Name":"Rockland Breakwater Lighthouse",
    "Location":" Rockland",
    "State":"  ME"
    }
  },
  {
    "type": "Feature",
    "geometry": {
       "type": "Point",
       "coordinates":  [ -69.0913,44.0856 ]
    },
    "properties": {
    "Name":"Rockland Harbor Southwest Lighthouse",
    "Location":" Rockland Harbor",
    "State":"  ME"
    }
  },
  {
    "type": "Feature",
    "geometry": {
       "type": "Point",
       "coordinates":  [ -68.7266,44.015 ]
    },
    "properties": {
    "Name":"Saddleback Ledge Light",
    "Location":" Rock Ledge near Vinalhaven Island",
    "State":"  ME"
    }
  },
  {
    "type": "Feature",
    "geometry": {
       "type": "Point",
       "coordinates":  [ -69.7583,43.7083 ]
    },
    "properties": {
    "Name":"Seguin Island Lighthouse",
    "Location":" Popham Beach",
    "State":"  ME"
    }
  },
  {
    "type": "Feature",
    "geometry": {
       "type": "Point",
       "coordinates":  [ -70.2241,43.6519 ]
    },
    "properties": {
    "Name":"Spring Point Ledge Light",
    "Location":" Portland Harbor",
    "State":"  ME"
    }
  },
  {
    "type": "Feature",
    "geometry": {
       "type": "Point",
       "coordinates":  [ -69.8016,43.8166 ]
    },
    "properties": {
    "Name":"Squirrel Point Light",
    "Location":" Arrowsic Island",
    "State":"  ME"
    }
  },
  {
    "type": "Feature",
    "geometry": {
       "type": "Point",
       "coordinates":  [ -69.1848,43.9611 ]
    },
    "properties": {
    "Name":"Tenants Harbor Lighthouse",
    "Location":" Southern Island",
    "State":"  ME"
    }
  },
  {
    "type": "Feature",
    "geometry": {
       "type": "Point",
       "coordinates":  [ -69.0738,43.9643 ]
    },
    "properties": {
    "Name":"Two Bush Lighthouse",
    "Location":" Two Bush Island",
    "State":"  ME"
    }
  },
  {
    "type": "Feature",
    "geometry": {
       "type": "Point",
       "coordinates":  [ -66.9505,44.815 ]
    },
    "properties": {
    "Name":"West Quoddy Head Lighthouse",
    "Location":" West Quoddy State Park",
    "State":"  ME"
    }
  },
  {
    "type": "Feature",
    "geometry": {
       "type": "Point",
       "coordinates":  [ -70.6967,43.0583 ]
    },
    "properties": {
    "Name":"Whaleback Ledge Light",
    "Location":" Mouth of Piscataqua River",
    "State":"  ME"
    }
  },
  {
    "type": "Feature",
    "geometry": {
       "type": "Point",
       "coordinates":  [ -69.125,43.9784 ]
    },
    "properties": {
    "Name":"Whitehead Lighthouse",
    "Location":" Whitehead Island",
    "State":"  ME"
    }
  },
  {
    "type": "Feature",
    "geometry": {
       "type": "Point",
       "coordinates":  [ -67.2275,45.1625 ]
    },
    "properties": {
    "Name":"Whitlocks Mill Light",
    "Location":" Calais",
    "State":"  ME"
    }
  },
  {
    "type": "Feature",
    "geometry": {
       "type": "Point",
       "coordinates":  [ -68.0878,44.3616 ]
    },
    "properties": {
    "Name":"Winter Harbor Lighthouse",
    "Location":" Mark Island",
    "State":"  ME"
    }
  },
  {
    "type": "Feature",
    "geometry": {
       "type": "Point",
       "coordinates":  [ -70.3292,43.4567 ]
    },
    "properties": {
    "Name":"Wood Island Lighthouse",
    "Location":" Biddeford Pool",
    "State":"  ME"
    }
  },
  {
    "type": "Feature",
    "geometry": {
       "type": "Point",
       "coordinates":  [ -83.4232,45.0601 ]
    },
    "properties": {
    "Name":"Alpena Harbor Light",
    "Location":" Alpena",
    "State":"MI"
    }
  },
  {
    "type": "Feature",
    "geometry": {
       "type": "Point",
       "coordinates":  [ -86.1391,46.673140000000004 ]
    },
    "properties": {
    "Name":"Au Sable Point Light-Au Sable Point",
    "Location":" Pictured Rocks National Lakeshore",
    "State":"MI"
    }
  },
  {
    "type": "Feature",
    "geometry": {
       "type": "Point",
       "coordinates":  [ -85.5763,45.5773 ]
    },
    "properties": {
    "Name":"Beaver Head Lighthouse",
    "Location":" Beaver Island",
    "State":"MI"
    }
  },
  {
    "type": "Feature",
    "geometry": {
       "type": "Point",
       "coordinates":  [ -85.5088,45.7425 ]
    },
    "properties": {
    "Name":"Beaver Island Harbor (St. James)Light",
    "Location":" Beaver Island",
    "State":"MI"
    }
  },
  {
    "type": "Feature",
    "geometry": {
       "type": "Point",
       "coordinates":  [ -87.9669,47.3742 ]
    },
    "properties": {
    "Name":"Bete Grise (Mendota) Light",
    "Location":" Bete Grise",
    "State":"MI"
    }
  },
  {
    "type": "Feature",
    "geometry": {
       "type": "Point",
       "coordinates":  [ -87.68,46.8417 ]
    },
    "properties": {
    "Name":"Big Bay Point Lighthouse",
    "Location":" Big Bay",
    "State":"MI"
    }
  },
  {
    "type": "Feature",
    "geometry": {
       "type": "Point",
       "coordinates":  [ -86.514486,44.057625 ]
    },
    "properties": {
    "Name":"Big Sable Point Lighthouse",
    "Location":" Ludington",
    "State":"MI"
    }
  },
  {
    "type": "Feature",
    "geometry": {
       "type": "Point",
       "coordinates":  [ -84.4208,45.8111 ]
    },
    "properties": {
    "Name":"Bois Blanc Island Lighthouse",
    "Location":" Bois Blanc Island",
    "State":"MI"
    }
  },
  {
    "type": "Feature",
    "geometry": {
       "type": "Point",
       "coordinates":  [ -87.3538,45.4086 ]
    },
    "properties": {
    "Name":"Cedar River Lighthouse",
    "Location":" Cedar River",
    "State":"MI"
    }
  },
  {
    "type": "Feature",
    "geometry": {
       "type": "Point",
       "coordinates":  [ -83.44109,44.03745 ]
    },
    "properties": {
    "Name":"Charity Island Lighthouse",
    "Location":" Charity Island",
    "State":"MI"
    }
  },
  {
    "type": "Feature",
    "geometry": {
       "type": "Point",
       "coordinates":  [ -85.264551,45.319911 ]
    },
    "properties": {
    "Name":"Charlevoix South Pier Light",
    "Location":" Charlevoix",
    "State":"MI"
    }
  },
  {
    "type": "Feature",
    "geometry": {
       "type": "Point",
       "coordinates":  [ -84.464087,45.657728999999996 ]
    },
    "properties": {
    "Name":"Cheboygan Crib Light",
    "Location":" Cheboygan",
    "State":"MI"
    }
  },
  {
    "type": "Feature",
    "geometry": {
       "type": "Point",
       "coordinates":  [ -84.4728,45.6473 ]
    },
    "properties": {
    "Name":"Cheboygan River Front Range Light",
    "Location":" Cheboygan",
    "State":"MI"
    }
  },
  {
    "type": "Feature",
    "geometry": {
       "type": "Point",
       "coordinates":  [ -84.46554499999999,45.656197 ]
    },
    "properties": {
    "Name":"Cheboygan River Lighthouse",
    "Location":" Cheboygan",
    "State":"MI"
    }
  },
  {
    "type": "Feature",
    "geometry": {
       "type": "Point",
       "coordinates":  [ -84.4151,45.6684 ]
    },
    "properties": {
    "Name":"Cheboygan Ruins Lighthouse",
    "Location":" Cheboygan State Park",
    "State":"MI"
    }
  },
  {
    "type": "Feature",
    "geometry": {
       "type": "Point",
       "coordinates":  [ -86.6913,46.4367 ]
    },
    "properties": {
    "Name":"Christmas (End of the Road) Range Light",
    "Location":" Christmas",
    "State":"MI"
    }
  },
  {
    "type": "Feature",
    "geometry": {
       "type": "Point",
       "coordinates":  [ -87.8602,47.4744 ]
    },
    "properties": {
    "Name":"Copper Harbor(Gull Rock) Lighthouse",
    "Location":" Copper Harbor",
    "State":"MI"
    }
  },
  {
    "type": "Feature",
    "geometry": {
       "type": "Point",
       "coordinates":  [ -87.8667,47.4678 ]
    },
    "properties": {
    "Name":"Copper Harbor Range Lights",
    "Location":" Copper Harbor",
    "State":"MI"
    }
  },
  {
    "type": "Feature",
    "geometry": {
       "type": "Point",
       "coordinates":  [ -85.2572,46.7528 ]
    },
    "properties": {
    "Name":"Crisp Point Light",
    "Location":" Crisp Point",
    "State":"MI"
    }
  },
  {
    "type": "Feature",
    "geometry": {
       "type": "Point",
       "coordinates":  [ -83.9033,45.9483 ]
    },
    "properties": {
    "Name":"DeTour Reef Lighthouse",
    "Location":" Lake Huron at St Mary's River",
    "State":"MI"
    }
  },
  {
    "type": "Feature",
    "geometry": {
       "type": "Point",
       "coordinates":  [ -83.14121800000001,42.000885 ]
    },
    "properties": {
    "Name":"Detroit River Light",
    "Location":" Lake Erie and Detroit River",
    "State":"MI"
    }
  },
  {
    "type": "Feature",
    "geometry": {
       "type": "Point",
       "coordinates":  [ -88.1596,47.4597 ]
    },
    "properties": {
    "Name":"Eagle Harbor Lighthouse",
    "Location":" Eagle Harbor",
    "State":"MI"
    }
  },
  {
    "type": "Feature",
    "geometry": {
       "type": "Point",
       "coordinates":  [ -88.1543,47.4555 ]
    },
    "properties": {
    "Name":"Eagle Harbor Range Light",
    "Location":" Eagle Harbor",
    "State":"MI"
    }
  },
  {
    "type": "Feature",
    "geometry": {
       "type": "Point",
       "coordinates":  [ -88.2994,47.4138 ]
    },
    "properties": {
    "Name":"Eagle River Lighthouse",
    "Location":" Eagle River",
    "State":"MI"
    }
  },
  {
    "type": "Feature",
    "geometry": {
       "type": "Point",
       "coordinates":  [ -82.42241,43.006318 ]
    },
    "properties": {
    "Name":"Fort Gratiot Light",
    "Location":" Port Huron",
    "State":"MI"
    }
  },
  {
    "type": "Feature",
    "geometry": {
       "type": "Point",
       "coordinates":  [ -83.913682,45.486096999999994 ]
    },
    "properties": {
    "Name":"Forty Mile Point Lighthouse",
    "Location":" Rogers City",
    "State":"MI"
    }
  },
  {
    "type": "Feature",
    "geometry": {
       "type": "Point",
       "coordinates":  [ -84.4347,45.6798 ]
    },
    "properties": {
    "Name":"Fourteen Foot Shoal Lighthouse",
    "Location":" Cheboygan",
    "State":"MI"
    }
  },
  {
    "type": "Feature",
    "geometry": {
       "type": "Point",
       "coordinates":  [ -89.1202,46.9919 ]
    },
    "properties": {
    "Name":"Fourteen Mile Point Lighthouse-12.5 miles northeast",
    "Location":" Ontonagon",
    "State":"MI"
    }
  },
  {
    "type": "Feature",
    "geometry": {
       "type": "Point",
       "coordinates":  [ -86.25225400000001,44.630839 ]
    },
    "properties": {
    "Name":"Frankfort North Breakwater Lighthouse",
    "Location":" Frankfort",
    "State":"MI"
    }
  },
  {
    "type": "Feature",
    "geometry": {
       "type": "Point",
       "coordinates":  [ -86.25235500000001,44.629442 ]
    },
    "properties": {
    "Name":"Frankfort South Breakwater Light",
    "Location":" Frankfort",
    "State":"MI"
    }
  },
  {
    "type": "Feature",
    "geometry": {
       "type": "Point",
       "coordinates":  [ -84.3411,46.5001 ]
    },
    "properties": {
    "Name":"Frying Pan Island Light",
    "Location":" DeTour Village",
    "State":"MI"
    }
  },
  {
    "type": "Feature",
    "geometry": {
       "type": "Point",
       "coordinates":  [ -86.255907,43.056948999999996 ]
    },
    "properties": {
    "Name":"Grand Haven Lighthouse",
    "Location":" Grand Haven",
    "State":"MI"
    }
  },
  {
    "type": "Feature",
    "geometry": {
       "type": "Point",
       "coordinates":  [ -86.253819,43.057237 ]
    },
    "properties": {
    "Name":"Grand Haven Inner Lighthouse",
    "Location":" Grand Haven",
    "State":"MI"
    }
  },
  {
    "type": "Feature",
    "geometry": {
       "type": "Point",
       "coordinates":  [ -86.255957,43.058203000000006 ]
    },
    "properties": {
    "Name":"Grand Haven North Breakwater Light",
    "Location":" Grand Haven",
    "State":"MI"
    }
  },
  {
    "type": "Feature",
    "geometry": {
       "type": "Point",
       "coordinates":  [ -86.6207,46.4577 ]
    },
    "properties": {
    "Name":"Grand Island East Channel Light",
    "Location":" Grand Island",
    "State":"MI"
    }
  },
  {
    "type": "Feature",
    "geometry": {
       "type": "Point",
       "coordinates":  [ -86.68,46.4604 ]
    },
    "properties": {
    "Name":"Grand Island North Lighthouse",
    "Location":" Grand Island",
    "State":"MI"
    }
  },
  {
    "type": "Feature",
    "geometry": {
       "type": "Point",
       "coordinates":  [ -85.9715,46.6767 ]
    },
    "properties": {
    "Name":"Grand Marais Light",
    "Location":" Grand Marais",
    "State":"MI"
    }
  },
  {
    "type": "Feature",
    "geometry": {
       "type": "Point",
       "coordinates":  [ -85.549912,45.210224 ]
    },
    "properties": {
    "Name":"Grand Traverse Lighthouse",
    "Location":" Leelanau State Park",
    "State":"MI"
    }
  },
  {
    "type": "Feature",
    "geometry": {
       "type": "Point",
       "coordinates":  [ -87.4114,46.7208 ]
    },
    "properties": {
    "Name":"Granite Island Lighthouse",
    "Location":" Granite Island",
    "State":"MI"
    }
  },
  {
    "type": "Feature",
    "geometry": {
       "type": "Point",
       "coordinates":  [ -83.537,44.0184 ]
    },
    "properties": {
    "Name":"Gravelly Shoal Light",
    "Location":" Saginaw Bay",
    "State":"MI"
    }
  },
  {
    "type": "Feature",
    "geometry": {
       "type": "Point",
       "coordinates":  [ -85.1542,45.7656 ]
    },
    "properties": {
    "Name":"Grays Reef Ligh-4 miles west",
    "Location":" Waugoshance Island",
    "State":"MI"
    }
  },
  {
    "type": "Feature",
    "geometry": {
       "type": "Point",
       "coordinates":  [ -83.1419,42.1683 ]
    },
    "properties": {
    "Name":"Grosse Ile Light",
    "Location":" Grosse Ile Island",
    "State":"MI"
    }
  },
  {
    "type": "Feature",
    "geometry": {
       "type": "Point",
       "coordinates":  [ -87.6639,47.4169 ]
    },
    "properties": {
    "Name":"Gull Rock Lighthouse",
    "Location":" Gull Rock",
    "State":"MI"
    }
  },
  {
    "type": "Feature",
    "geometry": {
       "type": "Point",
       "coordinates":  [ -82.6323,43.8458 ]
    },
    "properties": {
    "Name":"Harbor Beach Light",
    "Location":" Harbor Beach",
    "State":"MI"
    }
  },
  {
    "type": "Feature",
    "geometry": {
       "type": "Point",
       "coordinates":  [ -82.6518,42.5504 ]
    },
    "properties": {
    "Name":"Harsens Island Rear Range Light",
    "Location":" Harsens Island",
    "State":"MI"
    }
  },
  {
    "type": "Feature",
    "geometry": {
       "type": "Point",
       "coordinates":  [ -86.212407,42.772673 ]
    },
    "properties": {
    "Name":"Holland Harbor Lighthouse",
    "Location":" Holland",
    "State":"MI"
    }
  },
  {
    "type": "Feature",
    "geometry": {
       "type": "Point",
       "coordinates":  [ -86.215799,42.773467 ]
    },
    "properties": {
    "Name":"Holland Harbor North Breakwater Light",
    "Location":" Holland",
    "State":"MI"
    }
  },
  {
    "type": "Feature",
    "geometry": {
       "type": "Point",
       "coordinates":  [ -86.21579399999999,42.772552000000005 ]
    },
    "properties": {
    "Name":"Holland Harbor South Breakwater Light",
    "Location":" Holland",
    "State":"MI"
    }
  },
  {
    "type": "Feature",
    "geometry": {
       "type": "Point",
       "coordinates":  [ -87.9983,46.9633 ]
    },
    "properties": {
    "Name":"Huron Island Lighthouse",
    "Location":" Huron Islands National Wildlife Refuge",
    "State":"MI"
    }
  },
  {
    "type": "Feature",
    "geometry": {
       "type": "Point",
       "coordinates":  [ -88.76198000000001,47.94846 ]
    },
    "properties": {
    "Name":"Isle Royale (Menagerie Island)Light",
    "Location":" Menagerie Island",
    "State":"MI"
    }
  },
  {
    "type": "Feature",
    "geometry": {
       "type": "Point",
       "coordinates":  [ -88.4129,46.97844 ]
    },
    "properties": {
    "Name":"Jacobsville (Portage River) Lighthouse",
    "Location":" Jacobsville",
    "State":"MI"
    }
  },
  {
    "type": "Feature",
    "geometry": {
       "type": "Point",
       "coordinates":  [ -88.6305,47.2343 ]
    },
    "properties": {
    "Name":"Keweenaw Waterway Upper Entrance Light",
    "Location":" Keweenaw Waterway",
    "State":"MI"
    }
  },
  {
    "type": "Feature",
    "geometry": {
       "type": "Point",
       "coordinates":  [ -82.755,42.465 ]
    },
    "properties": {
    "Name":"Lake St. Clair Light-middle of Lake",
    "Location":" Lake St Clair",
    "State":"MI"
    }
  },
  {
    "type": "Feature",
    "geometry": {
       "type": "Point",
       "coordinates":  [ -85.5616,45.9034 ]
    },
    "properties": {
    "Name":"Lansing Shoal Lighthouse-12 miles north",
    "Location":" Beaver Island",
    "State":"MI"
    }
  },
  {
    "type": "Feature",
    "geometry": {
       "type": "Point",
       "coordinates":  [ -82.42661,42.989514 ]
    },
    "properties": {
    "Name":"Lightship Huron",
    "Location":" Port Huron",
    "State":"MI"
    }
  },
  {
    "type": "Feature",
    "geometry": {
       "type": "Point",
       "coordinates":  [ -86.539567,43.651387 ]
    },
    "properties": {
    "Name":"Little Sable Point Light",
    "Location":" Silver Lake State Park",
    "State":"MI"
    }
  },
  {
    "type": "Feature",
    "geometry": {
       "type": "Point",
       "coordinates":  [ -84.9782,45.4188 ]
    },
    "properties": {
    "Name":"Little Traverse Lighthouse",
    "Location":" Harbor Springs",
    "State":"MI"
    }
  },
  {
    "type": "Feature",
    "geometry": {
       "type": "Point",
       "coordinates":  [ -86.469381,43.953672999999995 ]
    },
    "properties": {
    "Name":"Ludington North Pierhead Lighthouse",
    "Location":" Ludington",
    "State":"MI"
    }
  },
  {
    "type": "Feature",
    "geometry": {
       "type": "Point",
       "coordinates":  [ -86.46918199999999,43.951961 ]
    },
    "properties": {
    "Name":"Ludington South Pierhead Light",
    "Location":" Ludington",
    "State":"MI"
    }
  },
  {
    "type": "Feature",
    "geometry": {
       "type": "Point",
       "coordinates":  [ -84.72918299999999,45.787422 ]
    },
    "properties": {
    "Name":"Mackinac Point Lighthouse",
    "Location":" Mackinaw City",
    "State":"MI"
    }
  },
  {
    "type": "Feature",
    "geometry": {
       "type": "Point",
       "coordinates":  [ -86.346965,44.251791 ]
    },
    "properties": {
    "Name":"Manistee North Pierhead Light",
    "Location":" Manistee",
    "State":"MI"
    }
  },
  {
    "type": "Feature",
    "geometry": {
       "type": "Point",
       "coordinates":  [ -86.349953,44.251439000000005 ]
    },
    "properties": {
    "Name":"Manistee South Pierhead Light",
    "Location":" Manistee",
    "State":"MI"
    }
  },
  {
    "type": "Feature",
    "geometry": {
       "type": "Point",
       "coordinates":  [ -86.2466,45.945 ]
    },
    "properties": {
    "Name":"Manistique East Breakwater Light",
    "Location":" Manistique",
    "State":"MI"
    }
  },
  {
    "type": "Feature",
    "geometry": {
       "type": "Point",
       "coordinates":  [ -87.5878,47.4194 ]
    },
    "properties": {
    "Name":"Manitou Island Light",
    "Location":" Manitou Island",
    "State":"MI"
    }
  },
  {
    "type": "Feature",
    "geometry": {
       "type": "Point",
       "coordinates":  [ -87.3743,46.5348 ]
    },
    "properties": {
    "Name":"Marquette Breakwater Light",
    "Location":" Marquette",
    "State":"MI"
    }
  },
  {
    "type": "Feature",
    "geometry": {
       "type": "Point",
       "coordinates":  [ -87.3762,46.5467 ]
    },
    "properties": {
    "Name":"Marquette Harbor Lighthouse",
    "Location":" Marquette",
    "State":"MI"
    }
  },
  {
    "type": "Feature",
    "geometry": {
       "type": "Point",
       "coordinates":  [ -84.1484,45.9132 ]
    },
    "properties": {
    "Name":"Martin Reef  Light-7 miles offshore",
    "Location":" Port Dolomite",
    "State":"MI"
    }
  },
  {
    "type": "Feature",
    "geometry": {
       "type": "Point",
       "coordinates":  [ -84.77301999999999,45.78672 ]
    },
    "properties": {
    "Name":"McGulpin's Point Lighthouse-2 miles west of Mackinac Point Lighthouse",
    "Location":" Mackinac",
    "State":"MI"
    }
  },
  {
    "type": "Feature",
    "geometry": {
       "type": "Point",
       "coordinates":  [ -87.5856,45.0969 ]
    },
    "properties": {
    "Name":"Menominee North Pier Light",
    "Location":" Menominee",
    "State":"MI"
    }
  },
  {
    "type": "Feature",
    "geometry": {
       "type": "Point",
       "coordinates":  [ -83.32151,45.1933 ]
    },
    "properties": {
    "Name":"Middle Island Lighthouse-2.5 miles offshore-10 miles north",
    "Location":" Alpena",
    "State":"MI"
    }
  },
  {
    "type": "Feature",
    "geometry": {
       "type": "Point",
       "coordinates":  [ -84.17665,46.32497 ]
    },
    "properties": {
    "Name":"Middle Neebish (Lower Nicolet) Range Light",
    "Location":" Neebish Island in St Mary's River",
    "State":"MI"
    }
  },
  {
    "type": "Feature",
    "geometry": {
       "type": "Point",
       "coordinates":  [ -87.0097,45.5349 ]
    },
    "properties": {
    "Name":"Minneapolis Shoal Light-offshore entrance",
    "Location":" Little Bay De Noc",
    "State":"MI"
    }
  },
  {
    "type": "Feature",
    "geometry": {
       "type": "Point",
       "coordinates":  [ -86.6616,46.415 ]
    },
    "properties": {
    "Name":"Munising Range Lights",
    "Location":" Munising",
    "State":"MI"
    }
  },
  {
    "type": "Feature",
    "geometry": {
       "type": "Point",
       "coordinates":  [ -86.341461,43.226679 ]
    },
    "properties": {
    "Name":"Muskegon South Pier Light",
    "Location":" Muskegon",
    "State":"MI"
    }
  },
  {
    "type": "Feature",
    "geometry": {
       "type": "Point",
       "coordinates":  [ -86.342026,43.227606 ]
    },
    "properties": {
    "Name":"Muskegon North Pier Light",
    "Location":" Muskegon",
    "State":"MI"
    }
  },
  {
    "type": "Feature",
    "geometry": {
       "type": "Point",
       "coordinates":  [ -86.347092,43.224084999999995 ]
    },
    "properties": {
    "Name":"Muskegon South Breakwater Light",
    "Location":" Muskegon",
    "State":"MI"
    }
  },
  {
    "type": "Feature",
    "geometry": {
       "type": "Point",
       "coordinates":  [ -86.348242,43.22555 ]
    },
    "properties": {
    "Name":"Muskegon North Breakwater Light",
    "Location":" Muskegon",
    "State":"MI"
    }
  },
  {
    "type": "Feature",
    "geometry": {
       "type": "Point",
       "coordinates":  [ -86.748111,41.800987 ]
    },
    "properties": {
    "Name":"New Buffalo Lighthouse (replica)",
    "Location":" New Buffalo",
    "State":"MI"
    }
  },
  {
    "type": "Feature",
    "geometry": {
       "type": "Point",
       "coordinates":  [ -85.9563,45.0199 ]
    },
    "properties": {
    "Name":"North Manitou Shoal Light-offshore",
    "Location":" Manitou Island",
    "State":"MI"
    }
  },
  {
    "type": "Feature",
    "geometry": {
       "type": "Point",
       "coordinates":  [ -85.479504,-85.479504 ]
    },
    "properties": {
    "Name":"Old Mission Point Lighthouse",
    "Location":" Penisula Township Park",
    "State":"MI"
    }
  },
  {
    "type": "Feature",
    "geometry": {
       "type": "Point",
       "coordinates":  [ -89.3281,46.876000000000005 ]
    },
    "properties": {
    "Name":"Ontonagon Lighthouse",
    "Location":" Ontonagon",
    "State":"MI"
    }
  },
  {
    "type": "Feature",
    "geometry": {
       "type": "Point",
       "coordinates":  [ -89.3295,46.8789 ]
    },
    "properties": {
    "Name":"Ontonagon West Pierhead Light",
    "Location":" Ontonagon",
    "State":"MI"
    }
  },
  {
    "type": "Feature",
    "geometry": {
       "type": "Point",
       "coordinates":  [ -88.3666,48.2234 ]
    },
    "properties": {
    "Name":"Passage Island Light",
    "Location":" Isle Royale National Park",
    "State":"MI"
    }
  },
  {
    "type": "Feature",
    "geometry": {
       "type": "Point",
       "coordinates":  [ -82.49176999999999,42.716347999999996 ]
    },
    "properties": {
    "Name":"Peche Island Light",
    "Location":" Marine City",
    "State":"MI"
    }
  },
  {
    "type": "Feature",
    "geometry": {
       "type": "Point",
       "coordinates":  [ -86.9666,45.6683 ]
    },
    "properties": {
    "Name":"Peninsula Point Light",
    "Location":" between Little Bay De Noc and Big Bay De Noc",
    "State":"MI"
    }
  },
  {
    "type": "Feature",
    "geometry": {
       "type": "Point",
       "coordinates":  [ -86.44362,43.782346000000004 ]
    },
    "properties": {
    "Name":"Pentwater North Pier Light",
    "Location":" Pentwater",
    "State":"MI"
    }
  },
  {
    "type": "Feature",
    "geometry": {
       "type": "Point",
       "coordinates":  [ -86.44413399999999,43.781969000000004 ]
    },
    "properties": {
    "Name":"Pentwater South Pier Light",
    "Location":" Pentwater",
    "State":"MI"
    }
  },
  {
    "type": "Feature",
    "geometry": {
       "type": "Point",
       "coordinates":  [ -84.9616,45.38 ]
    },
    "properties": {
    "Name":"Petoskey Pierhead Light",
    "Location":" Petoskey",
    "State":"MI"
    }
  },
  {
    "type": "Feature",
    "geometry": {
       "type": "Point",
       "coordinates":  [ -83.9,46.0167 ]
    },
    "properties": {
    "Name":"Pipe Island Lighthouse",
    "Location":" Pipe Island",
    "State":"MI"
    }
  },
  {
    "type": "Feature",
    "geometry": {
       "type": "Point",
       "coordinates":  [ -84.36200000000001,45.6949 ]
    },
    "properties": {
    "Name":"Poe Reef  Lighthouse-offshore",
    "Location":" Bois Blanc Island",
    "State":"MI"
    }
  },
  {
    "type": "Feature",
    "geometry": {
       "type": "Point",
       "coordinates":  [ -86.255253,44.691241 ]
    },